{"type": "geojson", "data": {"type": "FeatureCollection", "features": [{"type": "Feature", "geometry": {"type": "Point", "coordinates": [61.2151174, -149.8850574]}, "properties": {"title": "USCIS Anchorage Field Office", "stret": "222 W 7th Ave", "city": "Anchorage", "state": "Alaska", "countryCode": "US", "url": "https://www.google.com/maps/search/?api=1&query=USCIS%20Anchorage%20Field%20Office&query_place_id=ChIJNXadgBGXyFYRIVeLTrvWtEA"}}, {"type": "Feature", "geometry": {"type": "Point", "coordinates": [38.2523405, -85.7570961]}, "properties": {"title": "USCIS Louisville Field Office", "stret": "411 S 4th St suite 200", "city": "Louisville", "state": "Kentucky", "countryCode": "US", "url": "https://www.google.com/maps/search/?api=1&query=USCIS%20Louisville%20Field%20Office&query_place_id=ChIJPdLSK4ZzaYgRc5UrSCteNyY"}}, {"type": "Feature", "geometry": {"type": "Point", "coordinates": [35.403279, -94.3796772]}, "properties": {"title": "USCIS Fort Smith Field Office", "stret": "4624 Kelley Hwy", "city": "Fort Smith", "state": "Arkansas", "countryCode": "US", "url": "https://www.google.com/maps/search/?api=1&query=USCIS%20Fort%20Smith%20Field%20Office&query_place_id=ChIJ7SGFdaG0y4cR99El7R9wCAU"}}, {"type": "Feature", "geometry": {"type": "Point", "coordinates": [21.3016195, -157.8626605]}, "properties": {"title": "USCIS Honolulu Field Office", "stret": "500 Ala Moana Blvd Ste 2-403", "city": "Honolulu", "state": "Hawaii", "countryCode": "US", "url": "https://www.google.com/maps/search/?api=1&query=USCIS%20Honolulu%20Field%20Office&query_place_id=ChIJSzy1qmFvAHwRNlvGhog-Cek"}}, {"type": "Feature", "geometry": {"type": "Point", "coordinates": [47.4908092, -122.2914571]}, "properties": {"title": "USCIS Seattle Field Office", "stret": "12500 Tukwila International Blvd", "city": "Seattle", "state": "Washington", "countryCode": "US", "url": "https://www.google.com/maps/search/?api=1&query=USCIS%20Seattle%20Field%20Office&query_place_id=ChIJ4XoUjgFDkFQRG6UkYVMlJxw"}}, {"type": "Feature", "geometry": {"type": "Point", "coordinates": [34.7473214, -92.3960699]}, "properties": {"title": "US Customs Services", "stret": "10825 Financial Centre Pkwy Suite 126", "city": "Little Rock", "state": "Arkansas", "countryCode": "US", "url": "https://www.google.com/maps/search/?api=1&query=US%20Customs%20Services&query_place_id=ChIJQZWTeLSm0ocRBEQlOCYT9NI"}}, {"type": "Feature", "geometry": {"type": "Point", "coordinates": [46.7825302, -92.1069752]}, "properties": {"title": "USCIS Application Support Center (ASC)", "stret": "1301, 515 W 1st St Suite 208", "city": "Duluth", "state": "Minnesota", "countryCode": "US", "url": "https://www.google.com/maps/search/?api=1&query=USCIS%20Application%20Support%20Center%20(ASC)&query_place_id=ChIJCzlZomBTrlIRaKBX0-bcpKk"}}, {"type": "Feature", "geometry": {"type": "Point", "coordinates": [44.0438632, -92.4684018]}, "properties": {"title": "DIVINE IMMIGRATION AND EDUCATION CONSULTANCY LLC", "stret": "314 Elton Hills Dr NW", "city": "Rochester", "state": "Minnesota", "countryCode": "US", "url": "https://www.google.com/maps/search/?api=1&query=DIVINE%20IMMIGRATION%20AND%20EDUCATION%20CONSULTANCY%20LLC&query_place_id=ChIJ_QuJvNBf94cRCooBc4rNAhY"}}, {"type": "Feature", "geometry": {"type": "Point", "coordinates": [30.39972, -91.1041799]}, "properties": {"title": "US General Services Administration", "stret": "5211 Essen Ln", "city": "Baton Rouge", "state": "Louisiana", "countryCode": "US", "url": "https://www.google.com/maps/search/?api=1&query=US%20General%20Services%20Administration&query_place_id=ChIJOZhyXlukJoYRn04C3MfdG-8"}}, {"type": "Feature", "geometry": {"type": "Point", "coordinates": [36.7201184, -121.6544942]}, "properties": {"title": "USCIS Application Support Center (ASC)", "stret": "1954 N Main St", "city": "Salinas", "state": "California", "countryCode": "US", "url": "https://www.google.com/maps/search/?api=1&query=USCIS%20Application%20Support%20Center%20(ASC)&query_place_id=ChIJ7WGGrhP_jYAR0iSvKh_Sv1g"}}, {"type": "Feature", "geometry": {"type": "Point", "coordinates": [46.328362, -120.0236284]}, "properties": {"title": "US Immigration", "stret": "401 Homer St", "city": "Sunnyside", "state": "Washington", "countryCode": "US", "url": "https://www.google.com/maps/search/?api=1&query=US%20Immigration&query_place_id=ChIJgzoZgYUjmFQRleXB7KIbRRg"}}, {"type": "Feature", "geometry": {"type": "Point", "coordinates": [46.2112606, -119.1665008]}, "properties": {"title": "Refugee Immigrants Office", "stret": "3311 W Clearwater Ave", "city": "Kennewick", "state": "Washington", "countryCode": "US", "url": "https://www.google.com/maps/search/?api=1&query=Refugee%20Immigrants%20Office&query_place_id=ChIJHdF3dQZ5mFQRkMLx0c8FKQc"}}, {"type": "Feature", "geometry": {"type": "Point", "coordinates": [37.6464008, -121.0322817]}, "properties": {"title": "USCIS Application Support Center (ASC)", "stret": "901 N Carpenter Rd Suite 14", "city": "Modesto", "state": "California", "countryCode": "US", "url": "https://www.google.com/maps/search/?api=1&query=USCIS%20Application%20Support%20Center%20(ASC)&query_place_id=ChIJTzBv39RTkIAR97VyrAynw_8"}}, {"type": "Feature", "geometry": {"type": "Point", "coordinates": [35.1363226, -106.6078448]}, "properties": {"title": "USCIS Albuquerque Field Office", "stret": "1551 Mercantile Ave NE suite b", "city": "Albuquerque", "state": "New Mexico", "countryCode": "US", "url": "https://www.google.com/maps/search/?api=1&query=USCIS%20Albuquerque%20Field%20Office&query_place_id=ChIJpXSYzioLIocRPnfJX9kK7tY"}}, {"type": "Feature", "geometry": {"type": "Point", "coordinates": [35.1188083, -106.700752]}, "properties": {"title": "USCIS Application Support Center (ASC)", "stret": "3200 Coors Blvd. NW Suite L, M, N", "city": "Albuquerque", "state": "NM", "countryCode": "US", "url": "https://www.google.com/maps/search/?api=1&query=USCIS%20Application%20Support%20Center%20(ASC)&query_place_id=ChIJb564haoNIocRCK3QQrbpiCs"}}, {"type": "Feature", "geometry": {"type": "Point", "coordinates": [34.6956259, -86.7075203]}, "properties": {"title": "New Borders Immigration Services LLC", "stret": "7734 Madison Blvd Suite 129", "city": "Huntsville", "state": "Alabama", "countryCode": "US", "url": "https://www.google.com/maps/search/?api=1&query=New%20Borders%20Immigration%20Services%20LLC&query_place_id=ChIJCz2mPM9vYogRY4wEk2yqsAw"}}, {"type": "Feature", "geometry": {"type": "Point", "coordinates": [43.0392652, -87.9152463]}, "properties": {"title": "USCIS Milwaukee Field Office", "stret": "310 W Wisconsin Ave Suite 850 W", "city": "Milwaukee", "state": "Wisconsin", "countryCode": "US", "url": "https://www.google.com/maps/search/?api=1&query=USCIS%20Milwaukee%20Field%20Office&query_place_id=ChIJPd0ewzoZBYgRWjxxU5VvN2g"}}, {"type": "Feature", "geometry": {"type": "Point", "coordinates": [43.6383173, -70.357305]}, "properties": {"title": "USCIS Portland, ME Field Office", "stret": "207 Gannett Dr", "city": "South Portland", "state": "Maine", "countryCode": "US", "url": "https://www.google.com/maps/search/?api=1&query=USCIS%20Portland%2C%20ME%20Field%20Office&query_place_id=ChIJ2XGkDfmZskwR7F7YUl9c4KM"}}, {"type": "Feature", "geometry": {"type": "Point", "coordinates": [39.4450132, -119.7586897]}, "properties": {"title": "USCIS Reno Field Office", "stret": "790 Sandhill Road", "city": "Reno", "state": "Nevada", "countryCode": "US", "url": "https://www.google.com/maps/search/?api=1&query=USCIS%20Reno%20Field%20Office&query_place_id=ChIJqTF7exMVmYARyRY1wpG6VY8"}}, {"type": "Feature", "geometry": {"type": "Point", "coordinates": [39.4449959, -119.7586437]}, "properties": {"title": "USCIS Application Support Center (ASC)", "stret": "790 Sandhill Road", "city": "Reno", "state": "Nevada", "countryCode": "US", "url": "https://www.google.com/maps/search/?api=1&query=USCIS%20Application%20Support%20Center%20(ASC)&query_place_id=ChIJkYzcQ18VmYARN2-srLdQAxk"}}, {"type": "Feature", "geometry": {"type": "Point", "coordinates": [36.8566039, -76.2115233]}, "properties": {"title": "USCIS Norfolk Field Office", "stret": "5678 E Virginia Beach Blvd", "city": "Norfolk", "state": "Virginia", "countryCode": "US", "url": "https://www.google.com/maps/search/?api=1&query=USCIS%20Norfolk%20Field%20Office&query_place_id=ChIJt8kWQUaWuokRbkFzkbVvqXc"}}, {"type": "Feature", "geometry": {"type": "Point", "coordinates": [41.5863737, -93.620118]}, "properties": {"title": "USCIS Des Moines Field Office", "stret": "210 Walnut St Room#215", "city": "Des Moines", "state": "Iowa", "countryCode": "US", "url": "https://www.google.com/maps/search/?api=1&query=USCIS%20Des%20Moines%20Field%20Office&query_place_id=ChIJ0R1iI96Z7ocRce_Shtqh-C8"}}, {"type": "Feature", "geometry": {"type": "Point", "coordinates": [13.4871984, 144.7949083]}, "properties": {"title": "USCIS Guam Field Office", "stret": "770 East Sunset Boulevard, Suite 185 Barrigada GU 96913, E Sunset Blvd", "city": "Tamuning", "state": null, "countryCode": "GU", "url": "https://www.google.com/maps/search/?api=1&query=USCIS%20Guam%20Field%20Office&query_place_id=ChIJZQbt8KWCH2cRH-YjaaVS6Hc"}}, {"type": "Feature", "geometry": {"type": "Point", "coordinates": [47.4904723, -122.2911359]}, "properties": {"title": "USCIS Application Support Center (ASC)", "stret": "12500 Tukwila International Blvd", "city": "Seattle", "state": "Washington", "countryCode": "US", "url": "https://www.google.com/maps/search/?api=1&query=USCIS%20Application%20Support%20Center%20(ASC)&query_place_id=ChIJFej8jgFDkFQRs2FY_gNViJk"}}, {"type": "Feature", "geometry": {"type": "Point", "coordinates": [36.1321444, -86.7229555]}, "properties": {"title": "USCIS Nashville Field Office", "stret": "340 Plus Park Blvd", "city": "Nashville", "state": "Tennessee", "countryCode": "US", "url": "https://www.google.com/maps/search/?api=1&query=USCIS%20Nashville%20Field%20Office&query_place_id=ChIJp41HfedpZIgRDeKgLd-X4hc"}}, {"type": "Feature", "geometry": {"type": "Point", "coordinates": [36.0975647, -86.6783205]}, "properties": {"title": "USCIS Application Support Center (ASC)", "stret": "1400 Donelson Pike Suite B-13", "city": "Nashville", "state": "Tennessee", "countryCode": "US", "url": "https://www.google.com/maps/search/?api=1&query=USCIS%20Application%20Support%20Center%20(ASC)&query_place_id=ChIJeeW0F8ZvZIgRnlBrt0sHXE8"}}, {"type": "Feature", "geometry": {"type": "Point", "coordinates": [44.8080101, -68.8166161]}, "properties": {"title": "US Immigration & Customs Enfc", "stret": "267 Godfrey Blvd A", "city": "Bangor", "state": "Maine", "countryCode": "US", "url": "https://www.google.com/maps/search/?api=1&query=US%20Immigration%20%26%20Customs%20Enfc&query_place_id=ChIJ2R506dBKrkwRf1gOYyRvU4o"}}, {"type": "Feature", "geometry": {"type": "Point", "coordinates": [47.6585992, -117.4260094]}, "properties": {"title": "USCIS Spokane Field Office", "stret": "920 W Riverside Ave Room 691", "city": "Spokane", "state": "Washington", "countryCode": "US", "url": "https://www.google.com/maps/search/?api=1&query=USCIS%20Spokane%20Field%20Office&query_place_id=ChIJ_V2EU2cYnlQR38ef0k4PqGo"}}, {"type": "Feature", "geometry": {"type": "Point", "coordinates": [36.1423976, -115.2705619]}, "properties": {"title": "Russian Ukrainian Documentation Center", "stret": "2595 S Cimarron Rd #105", "city": "Las Vegas", "state": "Nevada", "countryCode": "US", "url": "https://www.google.com/maps/search/?api=1&query=Russian%20Ukrainian%20Documentation%20Center&query_place_id=ChIJm3U1sd7GyIARkK5aGZJYks8"}}, {"type": "Feature", "geometry": {"type": "Point", "coordinates": [36.0728374, -115.2865882]}, "properties": {"title": "RapidVisa", "stret": "8925 W Post Rd #120", "city": "Las Vegas", "state": "Nevada", "countryCode": "US", "url": "https://www.google.com/maps/search/?api=1&query=RapidVisa&query_place_id=ChIJPW9yRhZOE4cRPKLitY6_ZmI"}}, {"type": "Feature", "geometry": {"type": "Point", "coordinates": [36.0915768, -115.2874486]}, "properties": {"title": "Margo Chernysheva - MC Law Group - Immigration Lawyer Las Vegas", "stret": "8942 Spanish Ridge Ave #1", "city": "Las Vegas", "state": "Nevada", "countryCode": "US", "url": "https://www.google.com/maps/search/?api=1&query=Margo%20Chernysheva%20-%20MC%20Law%20Group%20-%20Immigration%20Lawyer%20Las%20Vegas&query_place_id=ChIJDQkNAIvFyIARZzoDMG6xXpw"}}, {"type": "Feature", "geometry": {"type": "Point", "coordinates": [40.730104, -74.1742464]}, "properties": {"title": "USCIS Newark Field Office", "stret": "970 Broad St #2506", "city": "Newark", "state": "New Jersey", "countryCode": "US", "url": "https://www.google.com/maps/search/?api=1&query=USCIS%20Newark%20Field%20Office&query_place_id=ChIJn7wM_nZTwokRpRPut1AJSaQ"}}, {"type": "Feature", "geometry": {"type": "Point", "coordinates": [40.628846, -73.9993695]}, "properties": {"title": "USCIS Brooklyn Field Office", "stret": "1260-1278 60th St", "city": "Brooklyn", "state": "New York", "countryCode": "US", "url": "https://www.google.com/maps/search/?api=1&query=USCIS%20Brooklyn%20Field%20Office&query_place_id=ChIJjS2PMIpbwokR91HnhkxKN18"}}, {"type": "Feature", "geometry": {"type": "Point", "coordinates": [40.7151032, -74.0044059]}, "properties": {"title": "USCIS District Office", "stret": "26 Federal Plaza #0127", "city": "New York", "state": "New York", "countryCode": "US", "url": "https://www.google.com/maps/search/?api=1&query=USCIS%20District%20Office&query_place_id=ChIJGSLwryFawokRhSY8j9SYO1A"}}, {"type": "Feature", "geometry": {"type": "Point", "coordinates": [40.74223, -73.9354616]}, "properties": {"title": "USCIS Queens Field Office", "stret": "31-00 47th Ave", "city": "Long Island City", "state": "New York", "countryCode": "US", "url": "https://www.google.com/maps/search/?api=1&query=USCIS%20Queens%20Field%20Office&query_place_id=ChIJV6ZuWt1fwokRym3y5ERvliY"}}, {"type": "Feature", "geometry": {"type": "Point", "coordinates": [40.7030286, -73.8018229]}, "properties": {"title": "USCIS Application Support Center (ASC)", "stret": "4910, 153-01 Jamaica Ave", "city": "Jamaica", "state": "NY", "countryCode": "US", "url": "https://www.google.com/maps/search/?api=1&query=USCIS%20Application%20Support%20Center%20(ASC)&query_place_id=ChIJSZnUwNtgwokRxgTMBFuTKzQ"}}, {"type": "Feature", "geometry": {"type": "Point", "coordinates": [40.750139, -73.9437404]}, "properties": {"title": "USCIS Application Support Center (ASC)", "stret": "22-11 43rd Ave", "city": "Long Island City", "state": "New York", "countryCode": "US", "url": "https://www.google.com/maps/search/?api=1&query=USCIS%20Application%20Support%20Center%20(ASC)&query_place_id=ChIJqaJSO9ZYwokRfBqP8E2av8A"}}, {"type": "Feature", "geometry": {"type": "Point", "coordinates": [40.7301363, -74.1742268]}, "properties": {"title": "USCIS District Office", "stret": "970 Broad St #2506", "city": "Newark", "state": "New Jersey", "countryCode": "US", "url": "https://www.google.com/maps/search/?api=1&query=USCIS%20District%20Office&query_place_id=ChIJif9f7d1TwokRpRKdkDs-h2Y"}}, {"type": "Feature", "geometry": {"type": "Point", "coordinates": [40.8774199, -74.0481525]}, "properties": {"title": "USCIS Application Support Center (ASC)", "stret": "116 Kansas St", "city": "Hackensack", "state": "New Jersey", "countryCode": "US", "url": "https://www.google.com/maps/search/?api=1&query=USCIS%20Application%20Support%20Center%20(ASC)&query_place_id=ChIJoxGp-_P5wokRTxT2zJyWkgI"}}, {"type": "Feature", "geometry": {"type": "Point", "coordinates": [40.8323519, -73.8652865]}, "properties": {"title": "USCIS Application Support Center (ASC)", "stret": "1827 Westchester Ave", "city": "Bronx", "state": "New York", "countryCode": "US", "url": "https://www.google.com/maps/search/?api=1&query=USCIS%20Application%20Support%20Center%20(ASC)&query_place_id=ChIJqzd-_sH0wokRkPZzjkWzNSE"}}, {"type": "Feature", "geometry": {"type": "Point", "coordinates": [40.7284418, -74.0058673]}, "properties": {"title": "USCIS Application Support Center (ASC)", "stret": "W Houston St Entrance, 201 Varick St Ste 1023", "city": "New York", "state": "NY", "countryCode": "US", "url": "https://www.google.com/maps/search/?api=1&query=USCIS%20Application%20Support%20Center%20(ASC)&query_place_id=ChIJuyunU41ZwokRmNbSbXOyw1Q"}}, {"type": "Feature", "geometry": {"type": "Point", "coordinates": [40.7408492, -74.0051347]}, "properties": {"title": "USCIS", "stret": "Hudson St", "city": "New York", "state": "New York", "countryCode": "US", "url": "https://www.google.com/maps/search/?api=1&query=USCIS&query_place_id=ChIJFTZrlKdZwokRYr9u6Ks8tiM"}}, {"type": "Feature", "geometry": {"type": "Point", "coordinates": [40.6290724, -73.9994783]}, "properties": {"title": "USCIS Application Support Center (ASC)", "stret": "4929, 1260-1278 60th St", "city": "Brooklyn", "state": "NY", "countryCode": "US", "url": "https://www.google.com/maps/search/?api=1&query=USCIS%20Application%20Support%20Center%20(ASC)&query_place_id=ChIJ9V8ApDBFwokRPfqQPXVrjRM"}}, {"type": "Feature", "geometry": {"type": "Point", "coordinates": [40.9993082, -73.6647961]}, "properties": {"title": "USCIS Application Support Center(ASC)", "stret": "40 S Main St", "city": "Port Chester", "state": "New York", "countryCode": "US", "url": "https://www.google.com/maps/search/?api=1&query=USCIS%20Application%20Support%20Center(ASC)&query_place_id=ChIJ-b_zSVuXwokRQApofYZGQWE"}}, {"type": "Feature", "geometry": {"type": "Point", "coordinates": [40.6691841, -74.2154477]}, "properties": {"title": "USCIS Application Support Center (ASC)", "stret": "285 N Broad St", "city": "Elizabeth", "state": "New Jersey", "countryCode": "US", "url": "https://www.google.com/maps/search/?api=1&query=USCIS%20Application%20Support%20Center%20(ASC)&query_place_id=ChIJJcxogqpSwokRXek-lLTkpqY"}}, {"type": "Feature", "geometry": {"type": "Point", "coordinates": [42.8815135, -85.6044351]}, "properties": {"title": "USCIS Application Support Center (ASC)", "stret": "4484 Breton Rd SE", "city": "Kentwood", "state": "Michigan", "countryCode": "US", "url": "https://www.google.com/maps/search/?api=1&query=USCIS%20Application%20Support%20Center%20(ASC)&query_place_id=ChIJHdhkhTSzGYgRVFxZQcvjOuA"}}, {"type": "Feature", "geometry": {"type": "Point", "coordinates": [39.2611249, -76.6694322]}, "properties": {"title": "USCIS Baltimore Field Office", "stret": "3701 Koppers St", "city": "Baltimore", "state": "Maryland", "countryCode": "US", "url": "https://www.google.com/maps/search/?api=1&query=USCIS%20Baltimore%20Field%20Office&query_place_id=ChIJqZMjCUIdyIkRaoodCuaLOqE"}}, {"type": "Feature", "geometry": {"type": "Point", "coordinates": [39.123781, -75.4979488]}, "properties": {"title": "USCIS Field Office", "stret": "250 Gateway S Blvd Suite 270", "city": "Dover", "state": "Delaware", "countryCode": "US", "url": "https://www.google.com/maps/search/?api=1&query=USCIS%20Field%20Office&query_place_id=ChIJrbdVJxFjx4kRuzUZTvt0Ej0"}}, {"type": "Feature", "geometry": {"type": "Point", "coordinates": [41.136745, -104.8198555]}, "properties": {"title": "US Immigration & Customs Enfc", "stret": "308 W 21st St", "city": "Cheyenne", "state": "Wyoming", "countryCode": "US", "url": "https://www.google.com/maps/search/?api=1&query=US%20Immigration%20%26%20Customs%20Enfc&query_place_id=ChIJd_YRi-o6b4cRcOD3hYLZJig"}}, {"type": "Feature", "geometry": {"type": "Point", "coordinates": [41.6785547, -86.9001529]}, "properties": {"title": "USCIS Application Support Center (ASC)", "stret": "284 Dunes Plaza SW Corner of US 20 and, US-421", "city": "Michigan City", "state": "IN", "countryCode": "US", "url": "https://www.google.com/maps/search/?api=1&query=USCIS%20Application%20Support%20Center%20(ASC)&query_place_id=ChIJmSb3J9UJEYgRKejiEAoQfKg"}}, {"type": "Feature", "geometry": {"type": "Point", "coordinates": [27.791165, -97.4026064]}, "properties": {"title": "Coastal Bend Immigration Council", "stret": "124 N Staples St B", "city": "Corpus Christi", "state": "Texas", "countryCode": "US", "url": "https://www.google.com/maps/search/?api=1&query=Coastal%20Bend%20Immigration%20Council&query_place_id=ChIJrc1BgVteaIYRbbflb3nkukM"}}, {"type": "Feature", "geometry": {"type": "Point", "coordinates": [18.4249185, -66.0573784]}, "properties": {"title": "USCIS Puerto Rico Field Office", "stret": "Plaza 273, 273 Ponce De Leon Ave, Suite 1100", "city": "San Juan", "state": "San Juan", "countryCode": "PR", "url": "https://www.google.com/maps/search/?api=1&query=USCIS%20Puerto%20Rico%20Field%20Office&query_place_id=ChIJiYPiuX9pA4wR5BfnTLYHb3s"}}, {"type": "Feature", "geometry": {"type": "Point", "coordinates": [39.598925, -104.8429994]}, "properties": {"title": "USCIS Denver Field Office", "stret": "12484 E Weaver Pl", "city": "Centennial", "state": "Colorado", "countryCode": "US", "url": "https://www.google.com/maps/search/?api=1&query=USCIS%20Denver%20Field%20Office&query_place_id=ChIJIXjXbkiJbIcRSOUllmvMf-4"}}, {"type": "Feature", "geometry": {"type": "Point", "coordinates": [39.598925, -104.8429994]}, "properties": {"title": "Denver Field Office", "stret": "12484 E Weaver Pl", "city": "Centennial", "state": "Colorado", "countryCode": "US", "url": "https://www.google.com/maps/search/?api=1&query=Denver%20Field%20Office&query_place_id=ChIJVfPF56mIbIcRNIvgHdO5lqE"}}, {"type": "Feature", "geometry": {"type": "Point", "coordinates": [39.6737048, -104.8080941]}, "properties": {"title": "USCIS Application Support Center (ASC)", "stret": "2350 S Chambers Rd b", "city": "Aurora", "state": "Colorado", "countryCode": "US", "url": "https://www.google.com/maps/search/?api=1&query=USCIS%20Application%20Support%20Center%20(ASC)&query_place_id=ChIJ72MDKBNjbIcROMJ8hEKUek0"}}, {"type": "Feature", "geometry": {"type": "Point", "coordinates": [41.9420738, -91.6807789]}, "properties": {"title": "Homeland Security Investigations", "stret": "3351 Square D Dr SW", "city": "Cedar Rapids", "state": "Iowa", "countryCode": "US", "url": "https://www.google.com/maps/search/?api=1&query=Homeland%20Security%20Investigations&query_place_id=ChIJUcR3VSn45IcRkF1X-lDyY6E"}}, {"type": "Feature", "geometry": {"type": "Point", "coordinates": [33.7485075, -117.8750515]}, "properties": {"title": "USCIS Santa Ana Field Office", "stret": "34 Civic Center Plaza", "city": "Santa Ana", "state": "California", "countryCode": "US", "url": "https://www.google.com/maps/search/?api=1&query=USCIS%20Santa%20Ana%20Field%20Office&query_place_id=ChIJx4v9fKrZ3IARFU3OfaqUj-o"}}, {"type": "Feature", "geometry": {"type": "Point", "coordinates": [33.887909, -118.3270673]}, "properties": {"title": "USCIS Application Support Center (ASC)", "stret": "15715 Crenshaw Blvd Room B-112", "city": "Gardena", "state": "California", "countryCode": "US", "url": "https://www.google.com/maps/search/?api=1&query=USCIS%20Application%20Support%20Center%20(ASC)&query_place_id=ChIJs2wyZ6G1woARtpSob7ZdtyA"}}, {"type": "Feature", "geometry": {"type": "Point", "coordinates": [34.0186008, -118.3558983]}, "properties": {"title": "USCIS Application Support Center (ASC)", "stret": "3747 S La Brea Ave", "city": "Los Angeles", "state": "California", "countryCode": "US", "url": "https://www.google.com/maps/search/?api=1&query=USCIS%20Application%20Support%20Center%20(ASC)&query_place_id=ChIJz6GWO8i5woARYe5jAfjGUgw"}}, {"type": "Feature", "geometry": {"type": "Point", "coordinates": [33.847091, -117.9872713]}, "properties": {"title": "USCIS Application Support Center (ASC)", "stret": "8381 La Palma Ave Suite A", "city": "Buena Park", "state": "California", "countryCode": "US", "url": "https://www.google.com/maps/search/?api=1&query=USCIS%20Application%20Support%20Center%20(ASC)&query_place_id=ChIJ8-4YG9kr3YARhCGJnNEjpiE"}}, {"type": "Feature", "geometry": {"type": "Point", "coordinates": [33.7278315, -117.8222757]}, "properties": {"title": "USCIS Application Support Center (ASC)", "stret": "14541 Red Hill Ave", "city": "Tustin", "state": "California", "countryCode": "US", "url": "https://www.google.com/maps/search/?api=1&query=USCIS%20Application%20Support%20Center%20(ASC)&query_place_id=ChIJ2ZaeV_rb3IARVfsrKxR_9i8"}}, {"type": "Feature", "geometry": {"type": "Point", "coordinates": [32.6684259, -114.625042]}, "properties": {"title": "USCIS Application Support Center (ASC)", "stret": "4051, 3250 S 4th Ave Suite E", "city": "Yuma", "state": "AZ", "countryCode": "US", "url": "https://www.google.com/maps/search/?api=1&query=USCIS%20Application%20Support%20Center%20(ASC)&query_place_id=ChIJLd0XHLRY1oARaxwm0N7TdrM"}}, {"type": "Feature", "geometry": {"type": "Point", "coordinates": [30.4792879, -97.7997394]}, "properties": {"title": "USCIS Application Support Center (ASC)", "stret": "11301 Lakeline Blvd #150", "city": "Austin", "state": "Texas", "countryCode": "US", "url": "https://www.google.com/maps/search/?api=1&query=USCIS%20Application%20Support%20Center%20(ASC)&query_place_id=ChIJ9eBXhVgtW4YRIjiV4ZohHlg"}}, {"type": "Feature", "geometry": {"type": "Point", "coordinates": [35.9648488, -83.9357613]}, "properties": {"title": "Jennings Immigration Law Office", "stret": "1209 Euclid Ave NW #202", "city": "Knoxville", "state": "Tennessee", "countryCode": "US", "url": "https://www.google.com/maps/search/?api=1&query=Jennings%20Immigration%20Law%20Office&query_place_id=ChIJO-_XK2glXIgRh4C1DCly3NI"}}, {"type": "Feature", "geometry": {"type": "Point", "coordinates": [36.1342514, -95.8311394]}, "properties": {"title": "Tulsa Immigration & Tax Service", "stret": "1217 S Memorial Dr", "city": "Tulsa", "state": "Oklahoma", "countryCode": "US", "url": "https://www.google.com/maps/search/?api=1&query=Tulsa%20Immigration%20%26%20Tax%20Service&query_place_id=ChIJ7ZuUaEbztocRf1CBWeir56s"}}, {"type": "Feature", "geometry": {"type": "Point", "coordinates": [35.3242631, -119.0546121]}, "properties": {"title": "USCIS Application Support Center (ASC)", "stret": "4701 Planz Rd A12", "city": "Bakersfield", "state": "California", "countryCode": "US", "url": "https://www.google.com/maps/search/?api=1&query=USCIS%20Application%20Support%20Center%20(ASC)&query_place_id=ChIJ0bUfPWpB6oARW8mKtu9l9Zw"}}, {"type": "Feature", "geometry": {"type": "Point", "coordinates": [44.9806945, -93.2674965]}, "properties": {"title": "USCIS Minneapolis Field Office", "stret": "250 S Marquette Ave #710", "city": "Minneapolis", "state": "Minnesota", "countryCode": "US", "url": "https://www.google.com/maps/search/?api=1&query=USCIS%20Minneapolis%20Field%20Office&query_place_id=ChIJw5-iSJsys1IRFSH0SEK5ObA"}}, {"type": "Feature", "geometry": {"type": "Point", "coordinates": [44.9560014, -93.1472559]}, "properties": {"title": "USCIS Application Support Center (ASC)", "stret": "1105 University Ave W suite 102", "city": "St Paul", "state": "Minnesota", "countryCode": "US", "url": "https://www.google.com/maps/search/?api=1&query=USCIS%20Application%20Support%20Center%20(ASC)&query_place_id=ChIJuSqQEHgq9ocRmfrixRrcWH0"}}, {"type": "Feature", "geometry": {"type": "Point", "coordinates": [40.7549026, -111.8857444]}, "properties": {"title": "USCIS Salt Lake City Field Office", "stret": "660 S 200 E #400", "city": "Salt Lake City", "state": "Utah", "countryCode": "US", "url": "https://www.google.com/maps/search/?api=1&query=USCIS%20Salt%20Lake%20City%20Field%20Office&query_place_id=ChIJ-YKcagT1UocRTfhcBakafpQ"}}, {"type": "Feature", "geometry": {"type": "Point", "coordinates": [41.8277525, -71.4990132]}, "properties": {"title": "USCIS Providence Field Office", "stret": "1543 Atwood Ave", "city": "Johnston", "state": "Rhode Island", "countryCode": "US", "url": "https://www.google.com/maps/search/?api=1&query=USCIS%20Providence%20Field%20Office&query_place_id=ChIJjWXnQdtH5IkRlZwGkPu4zH8"}}, {"type": "Feature", "geometry": {"type": "Point", "coordinates": [41.7613805, -72.6734969]}, "properties": {"title": "USCIS Hartford Field Office", "stret": "450 Main St First floor", "city": "Hartford", "state": "Connecticut", "countryCode": "US", "url": "https://www.google.com/maps/search/?api=1&query=USCIS%20Hartford%20Field%20Office&query_place_id=ChIJnVPEIHBT5okRloHS9tAkc9I"}}, {"type": "Feature", "geometry": {"type": "Point", "coordinates": [34.0007104, -81.0348144]}, "properties": {"title": "Uscic", "stret": null, "city": "Columbia", "state": "South Carolina", "countryCode": "US", "url": "https://www.google.com/maps/search/?api=1&query=Uscic&query_place_id=ChIJYeG2Rje7-IgRsROBxFF72MY"}}, {"type": "Feature", "geometry": {"type": "Point", "coordinates": [30.2566147, -81.5900657]}, "properties": {"title": "USCIS Jacksonville Field Office", "stret": "4121 Southpoint Blvd", "city": "Jacksonville", "state": "Florida", "countryCode": "US", "url": "https://www.google.com/maps/search/?api=1&query=USCIS%20Jacksonville%20Field%20Office&query_place_id=ChIJZ4YowIDL5YgR0UKchPXX1s8"}}, {"type": "Feature", "geometry": {"type": "Point", "coordinates": [30.2566147, -81.5900657]}, "properties": {"title": "USCIS Application Support Center (ASC)", "stret": "4121 Southpoint Blvd", "city": "Jacksonville", "state": "Florida", "countryCode": "US", "url": "https://www.google.com/maps/search/?api=1&query=USCIS%20Application%20Support%20Center%20(ASC)&query_place_id=ChIJ6zbzMQjK5YgRZtFa4sfVIa8"}}, {"type": "Feature", "geometry": {"type": "Point", "coordinates": [39.102406, -84.5094545]}, "properties": {"title": "USCIS Cincinnati Field Office", "stret": "5298, 550 Main St Room 4001", "city": "Cincinnati", "state": "Ohio", "countryCode": "US", "url": "https://www.google.com/maps/search/?api=1&query=USCIS%20Cincinnati%20Field%20Office&query_place_id=ChIJFeqoMVqxQYgRAnDkOrbfHPk"}}, {"type": "Feature", "geometry": {"type": "Point", "coordinates": [36.7361539, -119.7810219]}, "properties": {"title": "US Citizen & Immigration, Fresno Field Office", "stret": "744 P St #120", "city": "Fresno", "state": "California", "countryCode": "US", "url": "https://www.google.com/maps/search/?api=1&query=US%20Citizen%20%26%20Immigration%2C%20Fresno%20Field%20Office&query_place_id=ChIJoYxSicpflIAR5RtBfo9HW4Y"}}, {"type": "Feature", "geometry": {"type": "Point", "coordinates": [39.9335853, -74.9579568]}, "properties": {"title": "USCIS Mt. Laurel Field Office", "stret": "530 Fellowship Rd", "city": "Mt Laurel Township", "state": "New Jersey", "countryCode": "US", "url": "https://www.google.com/maps/search/?api=1&query=USCIS%20Mt.%20Laurel%20Field%20Office&query_place_id=ChIJ89MjIyg1wYkRA6Cz41fyT2k"}}, {"type": "Feature", "geometry": {"type": "Point", "coordinates": [40.3291857, -74.5000617]}, "properties": {"title": "USCIS New Jersey Central Field Office", "stret": "8 Cedarbrook Dr", "city": "Cranbury", "state": "New Jersey", "countryCode": "US", "url": "https://www.google.com/maps/search/?api=1&query=USCIS%20New%20Jersey%20Central%20Field%20Office&query_place_id=ChIJNy8sdSHdw4kRld4ODN2imIw"}}, {"type": "Feature", "geometry": {"type": "Point", "coordinates": [40.0818017, -74.9986974]}, "properties": {"title": "USCIS Application Support Center (ASC)", "stret": "10300 Drummond Rd Suite 100", "city": "Philadelphia", "state": "Pennsylvania", "countryCode": "US", "url": "https://www.google.com/maps/search/?api=1&query=USCIS%20Application%20Support%20Center%20(ASC)&query_place_id=ChIJ19AWlBazxokRr5BIWNMJOJo"}}, {"type": "Feature", "geometry": {"type": "Point", "coordinates": [43.5474752, -96.7234416]}, "properties": {"title": "USCIS SIOUX FALLS", "stret": "101 S Reid St Ste 207", "city": "Sioux Falls", "state": "South Dakota", "countryCode": "US", "url": "https://www.google.com/maps/search/?api=1&query=USCIS%20SIOUX%20FALLS&query_place_id=ChIJYTmSb6O1jocRiHFNZroagpA"}}, {"type": "Feature", "geometry": {"type": "Point", "coordinates": [43.547382, -96.7235685]}, "properties": {"title": "USCIS Application Support Center (ASC)", "stret": "101 S Reid St Suite 207", "city": "Sioux Falls", "state": "South Dakota", "countryCode": "US", "url": "https://www.google.com/maps/search/?api=1&query=USCIS%20Application%20Support%20Center%20(ASC)&query_place_id=ChIJD5LoVBK1jocREE1tNyc-t9I"}}, {"type": "Feature", "geometry": {"type": "Point", "coordinates": [42.3611384, -71.0600316]}, "properties": {"title": "USCIS Boston Field Office", "stret": "New, 15 Sudbury St", "city": "Boston", "state": "Massachusetts", "countryCode": "US", "url": "https://www.google.com/maps/search/?api=1&query=USCIS%20Boston%20Field%20Office&query_place_id=ChIJz31KW3Fx44kRw8nzibEhL-o"}}, {"type": "Feature", "geometry": {"type": "Point", "coordinates": [42.3611384, -71.0600316]}, "properties": {"title": "USCIS District 11- Boston Office", "stret": "15 Sudbury St", "city": "Boston", "state": "Massachusetts", "countryCode": "US", "url": "https://www.google.com/maps/search/?api=1&query=USCIS%20District%2011-%20Boston%20Office&query_place_id=ChIJwZW3I2Nx44kRedXN66Ombic"}}, {"type": "Feature", "geometry": {"type": "Point", "coordinates": [42.4105784, -71.0001046]}, "properties": {"title": "USCIS Application Support Center (ASC)", "stret": "7F Everett St", "city": "Revere", "state": "Massachusetts", "countryCode": "US", "url": "https://www.google.com/maps/search/?api=1&query=USCIS%20Application%20Support%20Center%20(ASC)&query_place_id=ChIJqzgQ6QJu44kRXZxufpt2j-8"}}, {"type": "Feature", "geometry": {"type": "Point", "coordinates": [39.0601575, -77.0487409]}, "properties": {"title": "USCIS Application Support Center (ASC) Glenmont", "stret": "12331 Georgia Ave C", "city": "Silver Spring", "state": "Maryland", "countryCode": "US", "url": "https://www.google.com/maps/search/?api=1&query=USCIS%20Application%20Support%20Center%20(ASC)%20Glenmont&query_place_id=ChIJEQTSR67Pt4kRCGBXppoOE9o"}}, {"type": "Feature", "geometry": {"type": "Point", "coordinates": [32.7196126, -117.1642648]}, "properties": {"title": "USCIS San Diego Field Office", "stret": "1325 Front St", "city": "San Diego", "state": "California", "countryCode": "US", "url": "https://www.google.com/maps/search/?api=1&query=USCIS%20San%20Diego%20Field%20Office&query_place_id=ChIJU-60LKhU2YARzPiCOTCRP_A"}}, {"type": "Feature", "geometry": {"type": "Point", "coordinates": [32.7134469, -117.1645409]}, "properties": {"title": "USCIS San Diego Field Office", "stret": "880 Front Street Mail) Suite 1234; (Physical) Suite 4251", "city": "San Diego", "state": "CA", "countryCode": "US", "url": "https://www.google.com/maps/search/?api=1&query=USCIS%20San%20Diego%20Field%20Office&query_place_id=ChIJz0neK6hU2YARciZwDz4ASxc"}}, {"type": "Feature", "geometry": {"type": "Point", "coordinates": [32.5980244, -117.0763403]}, "properties": {"title": "USCIS Application Support Center (ASC)", "stret": "Sommerset Plaza, 1655 Broadway, Suite 22, 4855", "city": "Chula Vista", "state": "CA", "countryCode": "US", "url": "https://www.google.com/maps/search/?api=1&query=USCIS%20Application%20Support%20Center%20(ASC)&query_place_id=ChIJVzngc_ZP2YARKpxz3ckKC8Q"}}, {"type": "Feature", "geometry": {"type": "Point", "coordinates": [33.1360819, -117.1791155]}, "properties": {"title": "USCIS Application Support Center (ASC)", "stret": "727 W San Marcos Blvd Suite 101-103", "city": "San Marcos", "state": "California", "countryCode": "US", "url": "https://www.google.com/maps/search/?api=1&query=USCIS%20Application%20Support%20Center%20(ASC)&query_place_id=ChIJy16V0lB13IARtGTiRT9sUYQ"}}, {"type": "Feature", "geometry": {"type": "Point", "coordinates": [32.7142276, -117.1647613]}, "properties": {"title": "USCIS District 44 Office", "stret": "Mail); 4251 (Physical 880, Front St #1234", "city": "San Diego", "state": "CA", "countryCode": "US", "url": "https://www.google.com/maps/search/?api=1&query=USCIS%20District%2044%20Office&query_place_id=ChIJ-cLwCbtV2YARe0qVTBtKiWU"}}, {"type": "Feature", "geometry": {"type": "Point", "coordinates": [29.6758161, -95.6447616]}, "properties": {"title": "USCIS Application Support Center (ASC) Houston SW", "stret": "9440 S Texas 6", "city": "Houston", "state": "Texas", "countryCode": "US", "url": "https://www.google.com/maps/search/?api=1&query=USCIS%20Application%20Support%20Center%20(ASC)%20Houston%20SW&query_place_id=ChIJj6YNEsrgQIYRGLcnYeYUbSU"}}, {"type": "Feature", "geometry": {"type": "Point", "coordinates": [29.6702207, -95.2616747]}, "properties": {"title": "USCIS Application Support Center (ASC) Houston SE", "stret": "5043, 8505 Gulf Fwy Suite A", "city": "Houston", "state": "TX", "countryCode": "US", "url": "https://www.google.com/maps/search/?api=1&query=USCIS%20Application%20Support%20Center%20(ASC)%20Houston%20SE&query_place_id=ChIJXUhuis6XQIYRi33CWCv4nz4"}}, {"type": "Feature", "geometry": {"type": "Point", "coordinates": [29.7202351, -95.499511]}, "properties": {"title": "Affordable Immigration Services", "stret": "6666 Harwin Dr.", "city": "Houston", "state": "Texas", "countryCode": "US", "url": "https://www.google.com/maps/search/?api=1&query=Affordable%20Immigration%20Services&query_place_id=ChIJCU3cpErCQIYRWgHu3cd_iy4"}}, {"type": "Feature", "geometry": {"type": "Point", "coordinates": [38.9115124, -77.4586343]}, "properties": {"title": "Departament of Homeland security", "stret": "14797 Murdock St", "city": "Chantilly", "state": "Virginia", "countryCode": "US", "url": "https://www.google.com/maps/search/?api=1&query=Departament%20of%20Homeland%20security&query_place_id=ChIJmTYpI1xHtokRckENLSfapMY"}}, {"type": "Feature", "geometry": {"type": "Point", "coordinates": [38.9115124, -77.4586343]}, "properties": {"title": "US Immigration & Customs Enforcement", "stret": "14797 Murdock St", "city": "Chantilly", "state": "Virginia", "countryCode": "US", "url": "https://www.google.com/maps/search/?api=1&query=US%20Immigration%20%26%20Customs%20Enforcement&query_place_id=ChIJbTl78CW4t4kROAN6SFhLtxw"}}, {"type": "Feature", "geometry": {"type": "Point", "coordinates": [38.8407869, -77.3081533]}, "properties": {"title": "Fairfax Community Relations", "stret": "10455 Armstrong St UNIT 316", "city": "Fairfax", "state": "Virginia", "countryCode": "US", "url": "https://www.google.com/maps/search/?api=1&query=Fairfax%20Community%20Relations&query_place_id=ChIJl1eq4oxOtokR-fZ6qxJ0iFo"}}, {"type": "Feature", "geometry": {"type": "Point", "coordinates": [32.8008665, -80.0175598]}, "properties": {"title": "USCIS", "stret": "1821 Sam Rittenberg Blvd", "city": "Charleston", "state": "South Carolina", "countryCode": "US", "url": "https://www.google.com/maps/search/?api=1&query=USCIS&query_place_id=ChIJ_5giAG17_ogRM49sAuPlLK8"}}, {"type": "Feature", "geometry": {"type": "Point", "coordinates": [32.8062089, -80.0122525]}, "properties": {"title": "USCIS Application Support Center (ASC)", "stret": "1650 Sam Rittenberg Blvd Suites 5-7, 4932", "city": "Charleston", "state": "SC", "countryCode": "US", "url": "https://www.google.com/maps/search/?api=1&query=USCIS%20Application%20Support%20Center%20(ASC)&query_place_id=ChIJP2A2G3l8_ogRP07iPU6oUK8"}}, {"type": "Feature", "geometry": {"type": "Point", "coordinates": [42.892868, -78.876559]}, "properties": {"title": "USCIS Buffalo Field Office", "stret": "306 Delaware Ave", "city": "Buffalo", "state": "New York", "countryCode": "US", "url": "https://www.google.com/maps/search/?api=1&query=USCIS%20Buffalo%20Field%20Office&query_place_id=ChIJaUQ8PzgT04kRi9rJMIzsXzY"}}, {"type": "Feature", "geometry": {"type": "Point", "coordinates": [42.8928948, -78.8762616]}, "properties": {"title": "USCIS Application Support Center (ASC)", "stret": "306 Delaware Ave", "city": "Buffalo", "state": "New York", "countryCode": "US", "url": "https://www.google.com/maps/search/?api=1&query=USCIS%20Application%20Support%20Center%20(ASC)&query_place_id=ChIJQfrihEsT04kRP9uhEaGacMs"}}, {"type": "Feature", "geometry": {"type": "Point", "coordinates": [32.8282383, -115.5804414]}, "properties": {"title": "USCIS Imperial Field Office", "stret": "509 Industry Way suite a", "city": "Imperial", "state": "California", "countryCode": "US", "url": "https://www.google.com/maps/search/?api=1&query=USCIS%20Imperial%20Field%20Office&query_place_id=ChIJzzftJPNf14ARqnFokUBxh8c"}}, {"type": "Feature", "geometry": {"type": "Point", "coordinates": [32.5980195, -117.0762751]}, "properties": {"title": "USCIS San Diego", "stret": "Sommerset Plaza, 1655 Broadway", "city": "Chula Vista", "state": "California", "countryCode": "US", "url": "https://www.google.com/maps/search/?api=1&query=USCIS%20San%20Diego&query_place_id=ChIJ9-6t3JxO2YARTgllKO9Z-FE"}}, {"type": "Feature", "geometry": {"type": "Point", "coordinates": [32.8160928, -115.5690795]}, "properties": {"title": "USCIS Application Support Center (ASC)", "stret": "3051 N Imperial Ave # 103", "city": "El Centro", "state": "California", "countryCode": "US", "url": "https://www.google.com/maps/search/?api=1&query=USCIS%20Application%20Support%20Center%20(ASC)&query_place_id=ChIJec2lFbRh14AR6VV_TTy1nac"}}, {"type": "Feature", "geometry": {"type": "Point", "coordinates": [38.0319268, -78.4908759]}, "properties": {"title": "American Immigration Services", "stret": "801 W Main St", "city": "Charlottesville", "state": "Virginia", "countryCode": "US", "url": "https://www.google.com/maps/search/?api=1&query=American%20Immigration%20Services&query_place_id=ChIJ__9vNTqGs4kR0ush-pU_xx0"}}, {"type": "Feature", "geometry": {"type": "Point", "coordinates": [38.45805, -122.734399]}, "properties": {"title": "USCIS Application Support Center (ASC)", "stret": "4174, 1401 Guerneville Rd Room 100", "city": "Santa Rosa", "state": "CA", "countryCode": "US", "url": "https://www.google.com/maps/search/?api=1&query=USCIS%20Application%20Support%20Center%20(ASC)&query_place_id=ChIJ1XRc1244hIARfD4Ar91Yw5E"}}, {"type": "Feature", "geometry": {"type": "Point", "coordinates": [39.7818982, -86.1570132]}, "properties": {"title": "U.S. Citizenship and Immigration Services Field Office", "stret": "1099 N Meridian St 10th floor", "city": "Indianapolis", "state": "Indiana", "countryCode": "US", "url": "https://www.google.com/maps/search/?api=1&query=U.S.%20Citizenship%20and%20Immigration%20Services%20Field%20Office&query_place_id=ChIJa1oMzUZRa4gRR6dZylLPdaE"}}, {"type": "Feature", "geometry": {"type": "Point", "coordinates": [26.1815403, -80.1876163]}, "properties": {"title": "USCIS Oakland Park Field Office", "stret": "4451 NW 31st Ave", "city": "Oakland Park", "state": "Florida", "countryCode": "US", "url": "https://www.google.com/maps/search/?api=1&query=USCIS%20Oakland%20Park%20Field%20Office&query_place_id=ChIJQ9vLhQAE2YgR0vugQHuPYFw"}}, {"type": "Feature", "geometry": {"type": "Point", "coordinates": [26.6909563, -80.195296]}, "properties": {"title": "USCIS West Palm Beach Field Office", "stret": "9300 Belvedere Rd", "city": "Royal Palm Beach", "state": "Florida", "countryCode": "US", "url": "https://www.google.com/maps/search/?api=1&query=USCIS%20West%20Palm%20Beach%20Field%20Office&query_place_id=ChIJ97DHxykv2YgRtLMxEZS5XiM"}}, {"type": "Feature", "geometry": {"type": "Point", "coordinates": [26.651745, -80.0887015]}, "properties": {"title": "USCIS Application Support Center (ASC)", "stret": "1661 S Congress Ave suite b", "city": "West Palm Beach", "state": "Florida", "countryCode": "US", "url": "https://www.google.com/maps/search/?api=1&query=USCIS%20Application%20Support%20Center%20(ASC)&query_place_id=ChIJW2kkEmXX2IgR93XbbQA4Dwk"}}, {"type": "Feature", "geometry": {"type": "Point", "coordinates": [26.1374375, -80.1322974]}, "properties": {"title": "Immigration US PRO", "stret": "1111 E Sunrise Blvd", "city": "Fort Lauderdale", "state": "Florida", "countryCode": "US", "url": "https://www.google.com/maps/search/?api=1&query=Immigration%20US%20PRO&query_place_id=ChIJzUnrDT8B2YgRUsn7yhDisXo"}}, {"type": "Feature", "geometry": {"type": "Point", "coordinates": [42.7067432, -71.1560349]}, "properties": {"title": "USCIS Lawrence Field Office", "stret": "2 Mill St", "city": "Lawrence", "state": "Massachusetts", "countryCode": "US", "url": "https://www.google.com/maps/search/?api=1&query=USCIS%20Lawrence%20Field%20Office&query_place_id=ChIJL1X1J6YH44kR7e-XQT7BYj0"}}, {"type": "Feature", "geometry": {"type": "Point", "coordinates": [34.9393051, -82.2469713]}, "properties": {"title": "USCIS Greer Field Office", "stret": "501 Pennsylvania Ave", "city": "Greer", "state": "South Carolina", "countryCode": "US", "url": "https://www.google.com/maps/search/?api=1&query=USCIS%20Greer%20Field%20Office&query_place_id=ChIJbUmHNp0rWIgRTTz5L6vt1oA"}}, {"type": "Feature", "geometry": {"type": "Point", "coordinates": [35.1530486, -80.8950396]}, "properties": {"title": "USCIS Charlotte Field Office", "stret": "201 Regency Executive Park Dr", "city": "Charlotte", "state": "North Carolina", "countryCode": "US", "url": "https://www.google.com/maps/search/?api=1&query=USCIS%20Charlotte%20Field%20Office&query_place_id=ChIJBfidqTCZVogREOnUit1U9lE"}}, {"type": "Feature", "geometry": {"type": "Point", "coordinates": [35.1370594, -80.8770055]}, "properties": {"title": "USCIS Application Support Center", "stret": "910 E Arrowood Rd", "city": "Charlotte", "state": "North Carolina", "countryCode": "US", "url": "https://www.google.com/maps/search/?api=1&query=USCIS%20Application%20Support%20Center&query_place_id=ChIJIX1VsVGfVogRnSp3wABUQP4"}}, {"type": "Feature", "geometry": {"type": "Point", "coordinates": [34.239764, -118.564971]}, "properties": {"title": "USCIS San Fernando Valley Field Office", "stret": "19809 Prairie St #100", "city": "Chatsworth", "state": "California", "countryCode": "US", "url": "https://www.google.com/maps/search/?api=1&query=USCIS%20San%20Fernando%20Valley%20Field%20Office&query_place_id=ChIJr5wt7DWUwoARf4RI4AH1qkE"}}, {"type": "Feature", "geometry": {"type": "Point", "coordinates": [34.2900387, -118.4486307]}, "properties": {"title": "USCIS Application Support Center (ASC)", "stret": "1671 San Fernando Rd", "city": "San Fernando", "state": "California", "countryCode": "US", "url": "https://www.google.com/maps/search/?api=1&query=USCIS%20Application%20Support%20Center%20(ASC)&query_place_id=ChIJK-rNmNuRwoARZARvK4Oheic"}}, {"type": "Feature", "geometry": {"type": "Point", "coordinates": [34.220693, -119.14717]}, "properties": {"title": "USCIS Application Support Center (ASC)", "stret": "2000 Outlet Center Dr Suite 200", "city": "Oxnard", "state": "California", "countryCode": "US", "url": "https://www.google.com/maps/search/?api=1&query=USCIS%20Application%20Support%20Center%20(ASC)&query_place_id=ChIJZxCehA5M6IARavmQ5lIsSx0"}}, {"type": "Feature", "geometry": {"type": "Point", "coordinates": [34.2398302, -118.5650434]}, "properties": {"title": "USCIS Application Support Center (ASC)", "stret": "19809 Prairie Street 1st Floor, Suite 109, 6504", "city": "Chatsworth", "state": "CA", "countryCode": "US", "url": "https://www.google.com/maps/search/?api=1&query=USCIS%20Application%20Support%20Center%20(ASC)&query_place_id=ChIJKRlw0SibwoARCPb2yBvgBVs"}}, {"type": "Feature", "geometry": {"type": "Point", "coordinates": [35.4236439, -97.597519]}, "properties": {"title": "USCIS Oklahoma City Field Office", "stret": "4400 SW 44th St suite a", "city": "Oklahoma City", "state": "Oklahoma", "countryCode": "US", "url": "https://www.google.com/maps/search/?api=1&query=USCIS%20Oklahoma%20City%20Field%20Office&query_place_id=ChIJEd_xyfERsocR8bU2lS3WshQ"}}, {"type": "Feature", "geometry": {"type": "Point", "coordinates": [37.4510996, -105.8659154]}, "properties": {"title": "U.S. Immigration and Customs Enforcement", "stret": "1921 State Ave", "city": "Alamosa", "state": "Colorado", "countryCode": "US", "url": "https://www.google.com/maps/search/?api=1&query=U.S.%20Immigration%20and%20Customs%20Enforcement&query_place_id=ChIJAebxvnx8FocRuarp7jcgfbU"}}, {"type": "Feature", "geometry": {"type": "Point", "coordinates": [40.819269, -96.709343]}, "properties": {"title": "USCIS Nebraska Service Center", "stret": "850 S St", "city": "Lincoln", "state": "Nebraska", "countryCode": "US", "url": "https://www.google.com/maps/search/?api=1&query=USCIS%20Nebraska%20Service%20Center&query_place_id=ChIJ6eAfTBy_locRWAb0fJTB8b4"}}, {"type": "Feature", "geometry": {"type": "Point", "coordinates": [40.85703, -96.7398294]}, "properties": {"title": "USCIS", "stret": "1301 W Highland Blvd", "city": "Lincoln", "state": "Nebraska", "countryCode": "US", "url": "https://www.google.com/maps/search/?api=1&query=USCIS&query_place_id=ChIJFSRdVn65locR7C1JlicKsnU"}}, {"type": "Feature", "geometry": {"type": "Point", "coordinates": [37.3587595, -121.9361901]}, "properties": {"title": "USCIS San Jose Field Office", "stret": "1450 Coleman Ave", "city": "Santa Clara", "state": "California", "countryCode": "US", "url": "https://www.google.com/maps/search/?api=1&query=USCIS%20San%20Jose%20Field%20Office&query_place_id=ChIJowqbTUfLj4ARMF4itLwsjwU"}}, {"type": "Feature", "geometry": {"type": "Point", "coordinates": [37.2490412, -121.8315739]}, "properties": {"title": "USCIS Application Support Center (ASC)", "stret": "5675 Snell Ave", "city": "San Jose", "state": "California", "countryCode": "US", "url": "https://www.google.com/maps/search/?api=1&query=USCIS%20Application%20Support%20Center%20(ASC)&query_place_id=ChIJAQBAq7DLj4ARen_4cPJcc-o"}}, {"type": "Feature", "geometry": {"type": "Point", "coordinates": [37.4836949, -121.9450446]}, "properties": {"title": "US Immigration Services", "stret": "46560 Fremont Blvd STE 204", "city": "Fremont", "state": "California", "countryCode": "US", "url": "https://www.google.com/maps/search/?api=1&query=US%20Immigration%20Services&query_place_id=ChIJo3l2ShvHj4ARprtH15trcsc"}}, {"type": "Feature", "geometry": {"type": "Point", "coordinates": [37.7961758, -122.4016087]}, "properties": {"title": "USCIS San Francisco Field Office", "stret": "630 Sansome St Suite 1080", "city": "San Francisco", "state": "California", "countryCode": "US", "url": "https://www.google.com/maps/search/?api=1&query=USCIS%20San%20Francisco%20Field%20Office&query_place_id=ChIJgyqWHWCAhYARzjbihfeZwe8"}}, {"type": "Feature", "geometry": {"type": "Point", "coordinates": [37.7987276, -122.4018325]}, "properties": {"title": "USCIS Application Support Center (ASC)", "stret": "1506, 250 Broadway", "city": "San Francisco", "state": "California", "countryCode": "US", "url": "https://www.google.com/maps/search/?api=1&query=USCIS%20Application%20Support%20Center%20(ASC)&query_place_id=ChIJeRI_efWAhYARE18wlvHdIVY"}}, {"type": "Feature", "geometry": {"type": "Point", "coordinates": [37.7405491, -122.2008911]}, "properties": {"title": "USCIS Application Support Center (ASC)", "stret": "8000 Edgewater Dr Suite 170", "city": "Oakland", "state": "California", "countryCode": "US", "url": "https://www.google.com/maps/search/?api=1&query=USCIS%20Application%20Support%20Center%20(ASC)&query_place_id=ChIJbR0eM1iFj4ARzuazsYm0jb8"}}, {"type": "Feature", "geometry": {"type": "Point", "coordinates": [33.4354709, -112.0490676]}, "properties": {"title": "USCIS Phoenix Field Office", "stret": "1330 S 16th St", "city": "Phoenix", "state": "Arizona", "countryCode": "US", "url": "https://www.google.com/maps/search/?api=1&query=USCIS%20Phoenix%20Field%20Office&query_place_id=ChIJO6UNZiIRK4cRcXfQLicKRTU"}}, {"type": "Feature", "geometry": {"type": "Point", "coordinates": [33.4707797, -112.0731608]}, "properties": {"title": "USCIS Immigration Office", "stret": "2035 N Central Ave", "city": "Phoenix", "state": "Arizona", "countryCode": "US", "url": "https://www.google.com/maps/search/?api=1&query=USCIS%20Immigration%20Office&query_place_id=ChIJyQcAIUISK4cRRVRqEnpLiSo"}}, {"type": "Feature", "geometry": {"type": "Point", "coordinates": [33.4354145, -112.0487321]}, "properties": {"title": "USCIS Application Support Center (ASC)", "stret": "1330 S 16th St", "city": "Phoenix", "state": "Arizona", "countryCode": "US", "url": "https://www.google.com/maps/search/?api=1&query=USCIS%20Application%20Support%20Center%20(ASC)&query_place_id=ChIJBbA7uIIRK4cRLNxOjwGbmUk"}}, {"type": "Feature", "geometry": {"type": "Point", "coordinates": [46.8785236, -96.7899221]}, "properties": {"title": "USCIS Application Support Center (ASC)", "stret": "657 2nd Ave N Room 248", "city": "Fargo", "state": "North Dakota", "countryCode": "US", "url": "https://www.google.com/maps/search/?api=1&query=USCIS%20Application%20Support%20Center%20(ASC)&query_place_id=ChIJN5RxryXJyFIRiP0aOfyVqR8"}}, {"type": "Feature", "geometry": {"type": "Point", "coordinates": [46.8785349, -96.7899287]}, "properties": {"title": "US Immigration & Customs Enfc", "stret": "657 2nd Ave N #104", "city": "Fargo", "state": "North Dakota", "countryCode": "US", "url": "https://www.google.com/maps/search/?api=1&query=US%20Immigration%20%26%20Customs%20Enfc&query_place_id=ChIJt6XD22DJyFIR1oAynzJRkqM"}}, {"type": "Feature", "geometry": {"type": "Point", "coordinates": [15.2056837, 145.7169342]}, "properties": {"title": "USCIS Application Support Center (ASC)", "stret": "TSL Plaza Garapan", "city": "Garapan", "state": "Saipan", "countryCode": "MP", "url": "https://www.google.com/maps/search/?api=1&query=USCIS%20Application%20Support%20Center%20(ASC)&query_place_id=ChIJMcmLJfSw2GYRIWaOcZ-NvJA"}}, {"type": "Feature", "geometry": {"type": "Point", "coordinates": [18.3365455, -64.9536633]}, "properties": {"title": "USCIS Charlotte Amalie Field Office", "stret": "8000 Nisky Center, Suite 1A Charlottes Amalie St. Thomas USVI VI", "city": "Charlotte Amalie West", "state": "St Thomas", "countryCode": "VI", "url": "https://www.google.com/maps/search/?api=1&query=USCIS%20Charlotte%20Amalie%20Field%20Office&query_place_id=ChIJlaaON8sbBYwRr68LR334s1Y"}}, {"type": "Feature", "geometry": {"type": "Point", "coordinates": [18.3391136, -64.8607491]}, "properties": {"title": "USCIS", "stret": "8 Rte 38", "city": "Smith Bay", "state": "St Thomas", "countryCode": "VI", "url": "https://www.google.com/maps/search/?api=1&query=USCIS&query_place_id=ChIJOfrgRXURBYwRGgPkRdK-5bU"}}, {"type": "Feature", "geometry": {"type": "Point", "coordinates": [18.3422316, -64.9301686]}, "properties": {"title": "USCIS Application Support Center (ASC)", "stret": "St. Thomas, 6783 Estate Smith Bay", "city": "Charlotte Amalie", "state": "St Thomas", "countryCode": "VI", "url": "https://www.google.com/maps/search/?api=1&query=USCIS%20Application%20Support%20Center%20(ASC)&query_place_id=ChIJDSgAZn8bBYwRbDOQAqL45hA"}}, {"type": "Feature", "geometry": {"type": "Point", "coordinates": [30.4731538, -84.2847839]}, "properties": {"title": "DHS-US Investigations", "stret": "325 John Knox Rd # C100", "city": "Tallahassee", "state": "Florida", "countryCode": "US", "url": "https://www.google.com/maps/search/?api=1&query=DHS-US%20Investigations&query_place_id=ChIJeXVsnuz17IgREIaqCHTWtQU"}}, {"type": "Feature", "geometry": {"type": "Point", "coordinates": [46.6089858, -120.5056806]}, "properties": {"title": "USCIS Yakima Field Office", "stret": "415 N 3rd St", "city": "Yakima", "state": "Washington", "countryCode": "US", "url": "https://www.google.com/maps/search/?api=1&query=USCIS%20Yakima%20Field%20Office&query_place_id=ChIJrRtopY3XmVQRndoB-6FAcfM"}}, {"type": "Feature", "geometry": {"type": "Point", "coordinates": [35.1446309, -90.053451]}, "properties": {"title": "USCIS Memphis Field Office", "stret": "80 Monroe Ave 7th floor", "city": "Memphis", "state": "Tennessee", "countryCode": "US", "url": "https://www.google.com/maps/search/?api=1&query=USCIS%20Memphis%20Field%20Office&query_place_id=ChIJmyO5NZR-1YcR3EYv-nCQOvY"}}, {"type": "Feature", "geometry": {"type": "Point", "coordinates": [44.1072878, -103.2229775]}, "properties": {"title": "USCIS Application Support Center (ASC)", "stret": "Haines Station Ctr, 0411, 2255 Haines Ave #214", "city": "Rapid City", "state": "SD", "countryCode": "US", "url": "https://www.google.com/maps/search/?api=1&query=USCIS%20Application%20Support%20Center%20(ASC)&query_place_id=ChIJN_mq_6ldfYcRiJ8WScNnnxY"}}, {"type": "Feature", "geometry": {"type": "Point", "coordinates": [35.954805, -86.821779]}, "properties": {"title": "First Class Immigration", "stret": "330 Mallory Station Rd C-7", "city": "Franklin", "state": "Tennessee", "countryCode": "US", "url": "https://www.google.com/maps/search/?api=1&query=First%20Class%20Immigration&query_place_id=ChIJp44DR1B-ZIgRsUIDblKD8jU"}}, {"type": "Feature", "geometry": {"type": "Point", "coordinates": [41.177897, -73.1912602]}, "properties": {"title": "immigration raid and us immigration policy", "stret": "1087 Broad St", "city": "Bridgeport", "state": "Connecticut", "countryCode": "US", "url": "https://www.google.com/maps/search/?api=1&query=immigration%20raid%20and%20us%20immigration%20policy&query_place_id=ChIJq6o6q3EO6IkR4774r8HahQs"}}, {"type": "Feature", "geometry": {"type": "Point", "coordinates": [36.2251566, -86.7866474]}, "properties": {"title": "Department of Homeland Security", "stret": "501 Brick Church Park Dr", "city": "Nashville", "state": "Tennessee", "countryCode": "US", "url": "https://www.google.com/maps/search/?api=1&query=Department%20of%20Homeland%20Security&query_place_id=ChIJxStUU4FdZIgRfA2uaewqVL0"}}, {"type": "Feature", "geometry": {"type": "Point", "coordinates": [28.4669509, -81.2981505]}, "properties": {"title": "USCIS Orlando Field Office", "stret": "6680 Corporate Centre Blvd", "city": "Orlando", "state": "Florida", "countryCode": "US", "url": "https://www.google.com/maps/search/?api=1&query=USCIS%20Orlando%20Field%20Office&query_place_id=ChIJc78RQ3lj54gR3BCcpKGb7lQ"}}, {"type": "Feature", "geometry": {"type": "Point", "coordinates": [28.4785289, -81.3115839]}, "properties": {"title": "USCIS Application Support Center (ASC)", "stret": "5828 S Semoran Blvd", "city": "Orlando", "state": "Florida", "countryCode": "US", "url": "https://www.google.com/maps/search/?api=1&query=USCIS%20Application%20Support%20Center%20(ASC)&query_place_id=ChIJG0CApWVj54gRl1rf9h8i-mw"}}, {"type": "Feature", "geometry": {"type": "Point", "coordinates": [28.5170617, -81.5029298]}, "properties": {"title": "Florida's Turnpike Enterprise Operations Center (Turkey Lake)", "stret": "Florida's Tpke Milepost 263, Bldg.# 5317", "city": "Orlando", "state": "Florida", "countryCode": "US", "url": "https://www.google.com/maps/search/?api=1&query=Florida's%20Turnpike%20Enterprise%20Operations%20Center%20(Turkey%20Lake)&query_place_id=ChIJg1Xzq1NJ4okRc45IW50aig8"}}, {"type": "Feature", "geometry": {"type": "Point", "coordinates": [27.5415059, -99.4884606]}, "properties": {"title": "USCIS Application Support Center (ASC)", "stret": "3837, 707 E Calton Rd Suite 301", "city": "Laredo", "state": "Texas", "countryCode": "US", "url": "https://www.google.com/maps/search/?api=1&query=USCIS%20Application%20Support%20Center%20(ASC)&query_place_id=ChIJ3_Klp6EhYYYRSJJVAFb-mjk"}}, {"type": "Feature", "geometry": {"type": "Point", "coordinates": [33.474968, -86.822258]}, "properties": {"title": "USCIS Application Support Center (ASC)", "stret": "529 Beacon Pkwy W Suite 106", "city": "Birmingham", "state": "Alabama", "countryCode": "US", "url": "https://www.google.com/maps/search/?api=1&query=USCIS%20Application%20Support%20Center%20(ASC)&query_place_id=ChIJTUiOUQMfiYgRT-pEQ0vkuBM"}}, {"type": "Feature", "geometry": {"type": "Point", "coordinates": [32.3853569, -86.2602211]}, "properties": {"title": "USCIS Montgomery Field Office", "stret": "3381 Atlanta Hwy", "city": "Montgomery", "state": "Alabama", "countryCode": "US", "url": "https://www.google.com/maps/search/?api=1&query=USCIS%20Montgomery%20Field%20Office&query_place_id=ChIJD6Yy3RWBjogRbPBEsXdEYso"}}, {"type": "Feature", "geometry": {"type": "Point", "coordinates": [38.5777742, -121.4999296]}, "properties": {"title": "USCIS Sacramento Field Office", "stret": "650 Capitol Mall 2nd floor", "city": "Sacramento", "state": "California", "countryCode": "US", "url": "https://www.google.com/maps/search/?api=1&query=USCIS%20Sacramento%20Field%20Office&query_place_id=ChIJN5klcpzRmoAROIQM83syc9M"}}, {"type": "Feature", "geometry": {"type": "Point", "coordinates": [38.5909348, -121.5631021]}, "properties": {"title": "USCIS Application Support Center (ASC)", "stret": "1502, 825 Riverside Pkwy Suite 100", "city": "West Sacramento", "state": "CA", "countryCode": "US", "url": "https://www.google.com/maps/search/?api=1&query=USCIS%20Application%20Support%20Center%20(ASC)&query_place_id=ChIJ3VeIWkbUmoARTFDTkeSNDg4"}}, {"type": "Feature", "geometry": {"type": "Point", "coordinates": [34.072342, -117.2646215]}, "properties": {"title": "USCIS San Bernardino Field Office", "stret": null, "city": "San Bernardino", "state": "California", "countryCode": "US", "url": "https://www.google.com/maps/search/?api=1&query=USCIS%20San%20Bernardino%20Field%20Office&query_place_id=ChIJ_2dwITW33IARFvzf8NeS_Ig"}}, {"type": "Feature", "geometry": {"type": "Point", "coordinates": [34.0552673, -117.7535171]}, "properties": {"title": "USCIS Application Support Center (ASC)", "stret": "435 W Mission Blvd Suite 110", "city": "Pomona", "state": "California", "countryCode": "US", "url": "https://www.google.com/maps/search/?api=1&query=USCIS%20Application%20Support%20Center%20(ASC)&query_place_id=ChIJuarXhMgtw4ARfKHF61Xvqsc"}}, {"type": "Feature", "geometry": {"type": "Point", "coordinates": [34.0723824, -117.2643222]}, "properties": {"title": "U.S. Citizenship & Immigration Services", "stret": "995 Hardt St", "city": "San Bernardino", "state": "California", "countryCode": "US", "url": "https://www.google.com/maps/search/?api=1&query=U.S.%20Citizenship%20%26%20Immigration%20Services&query_place_id=ChIJ25VNHGOr3IAR13LVqBuqsDA"}}, {"type": "Feature", "geometry": {"type": "Point", "coordinates": [33.90313, -117.4778839]}, "properties": {"title": "USCIS Application Support Center (ASC)", "stret": "3812 La Sierra Ave", "city": "Riverside", "state": "California", "countryCode": "US", "url": "https://www.google.com/maps/search/?api=1&query=USCIS%20Application%20Support%20Center%20(ASC)&query_place_id=ChIJ1QssykG33IARjOb4-bMAEzU"}}, {"type": "Feature", "geometry": {"type": "Point", "coordinates": [38.3650669, -75.6025313]}, "properties": {"title": "US Government Office", "stret": "212 W Main St", "city": "Salisbury", "state": "Maryland", "countryCode": "US", "url": "https://www.google.com/maps/search/?api=1&query=US%20Government%20Office&query_place_id=ChIJM1cCCeoDuYkR4yc692qT2uQ"}}, {"type": "Feature", "geometry": {"type": "Point", "coordinates": [43.0111903, -89.4572209]}, "properties": {"title": "Madison Immigration Law", "stret": "2916 Marketplace Dr # 207", "city": "Madison", "state": "Wisconsin", "countryCode": "US", "url": "https://www.google.com/maps/search/?api=1&query=Madison%20Immigration%20Law&query_place_id=ChIJQY8owG-yB4gROE8lyhtyG_8"}}, {"type": "Feature", "geometry": {"type": "Point", "coordinates": [43.0742941, -89.3818344]}, "properties": {"title": "Glorily A. Lopez", "stret": "33 E Main St UNIT 500", "city": "Madison", "state": "Wisconsin", "countryCode": "US", "url": "https://www.google.com/maps/search/?api=1&query=Glorily%20A.%20Lopez&query_place_id=ChIJVyNOCD9TBogRy8oJb8raOXw"}}, {"type": "Feature", "geometry": {"type": "Point", "coordinates": [17.7552151, -64.7213787]}, "properties": {"title": "USCIS Application Support Center (ASC)", "stret": "3013 Estate Golden Rock", "city": "Golden Rock", "state": "St Croix", "countryCode": "VI", "url": "https://www.google.com/maps/search/?api=1&query=USCIS%20Application%20Support%20Center%20(ASC)&query_place_id=ChIJU9t-5OrJGowRD_HGVZv3ejU"}}, {"type": "Feature", "geometry": {"type": "Point", "coordinates": [17.7552076, -64.721371]}, "properties": {"title": "US Citizenship and Immigration Services", "stret": "3013 Estate Golden Rock", "city": "Christiansted", "state": "St Croix", "countryCode": "VI", "url": "https://www.google.com/maps/search/?api=1&query=US%20Citizenship%20and%20Immigration%20Services&query_place_id=ChIJ_1aNN4_JGowRw_NDkIlLJQI"}}, {"type": "Feature", "geometry": {"type": "Point", "coordinates": [32.1712796, -110.9170744]}, "properties": {"title": "USCIS Application Support Center (ASC)", "stret": "4475 S Coach Dr", "city": "Tucson", "state": "Arizona", "countryCode": "US", "url": "https://www.google.com/maps/search/?api=1&query=USCIS%20Application%20Support%20Center%20(ASC)&query_place_id=ChIJPXZEvbl61oYRgqJCL3HJEHI"}}, {"type": "Feature", "geometry": {"type": "Point", "coordinates": [32.806305, -97.4262415]}, "properties": {"title": "USCIS Application Support Center (ASC)", "stret": "5932 Quebec St #160", "city": "Fort Worth", "state": "Texas", "countryCode": "US", "url": "https://www.google.com/maps/search/?api=1&query=USCIS%20Application%20Support%20Center%20(ASC)&query_place_id=ChIJL9PYa9p0ToYRHi3z6_WwMYk"}}, {"type": "Feature", "geometry": {"type": "Point", "coordinates": [32.7082405, -97.1229858]}, "properties": {"title": "Immigration Assistance Group", "stret": "1194 W Pioneer Pkwy", "city": "Arlington", "state": "Texas", "countryCode": "US", "url": "https://www.google.com/maps/search/?api=1&query=Immigration%20Assistance%20Group&query_place_id=ChIJD88Nkjp9ToYR03-NzPX4RRg"}}, {"type": "Feature", "geometry": {"type": "Point", "coordinates": [29.6349414, -98.4547182]}, "properties": {"title": "USCIS San Antonio Field Office", "stret": "20760 North US-281 a", "city": "San Antonio", "state": "Texas", "countryCode": "US", "url": "https://www.google.com/maps/search/?api=1&query=USCIS%20San%20Antonio%20Field%20Office&query_place_id=ChIJJw_4KZaJXIYR9onlAWNq2kM"}}, {"type": "Feature", "geometry": {"type": "Point", "coordinates": [29.6350108, -98.454244]}, "properties": {"title": "San Antonio Tx Field Office", "stret": "20760 US-281", "city": "San Antonio", "state": "Texas", "countryCode": "US", "url": "https://www.google.com/maps/search/?api=1&query=San%20Antonio%20Tx%20Field%20Office&query_place_id=ChIJ2b2qiL2JXIYRrwpGn-yNyrs"}}, {"type": "Feature", "geometry": {"type": "Point", "coordinates": [43.1542176, -77.6042687]}, "properties": {"title": "United States Government", "stret": "US Courthouse", "city": "Rochester", "state": "New York", "countryCode": "US", "url": "https://www.google.com/maps/search/?api=1&query=United%20States%20Government&query_place_id=ChIJFxzEggC11okR3OMmLwb744Y"}}, {"type": "Feature", "geometry": {"type": "Point", "coordinates": [43.1578541, -77.6134743]}, "properties": {"title": "US Immigration & Customs Enfc", "stret": "100 State St # 4180", "city": "Rochester", "state": "New York", "countryCode": "US", "url": "https://www.google.com/maps/search/?api=1&query=US%20Immigration%20%26%20Customs%20Enfc&query_place_id=ChIJ3cOIKlS01okRKnm3Ix1nXP0"}}, {"type": "Feature", "geometry": {"type": "Point", "coordinates": [32.3009329, -90.1890681]}, "properties": {"title": "USCIS Application Support Center (ASC)", "stret": "1602, 100 W Capitol St Suite 727", "city": "Jackson", "state": "Mississippi", "countryCode": "US", "url": "https://www.google.com/maps/search/?api=1&query=USCIS%20Application%20Support%20Center%20(ASC)&query_place_id=ChIJm4cKSN4zKIYRJY6OXHyJx8E"}}, {"type": "Feature", "geometry": {"type": "Point", "coordinates": [34.0537633, -118.2397336]}, "properties": {"title": "USCIS Los Angeles Field Office", "stret": "300 N Los Angeles St rm 7631", "city": "Los Angeles", "state": "California", "countryCode": "US", "url": "https://www.google.com/maps/search/?api=1&query=USCIS%20Los%20Angeles%20Field%20Office&query_place_id=ChIJHU8F3EXGwoARIDkXdC0mjrM"}}, {"type": "Feature", "geometry": {"type": "Point", "coordinates": [34.0537012, -118.23977]}, "properties": {"title": "USCIS Application Support Center (ASC)", "stret": "300 N Los Angeles St", "city": "Los Angeles", "state": "California", "countryCode": "US", "url": "https://www.google.com/maps/search/?api=1&query=USCIS%20Application%20Support%20Center%20(ASC)&query_place_id=ChIJoxY8S7DHwoARr5448MoxrHk"}}, {"type": "Feature", "geometry": {"type": "Point", "coordinates": [33.9909795, -117.9161756]}, "properties": {"title": "USCIS Application Support Center (ASC)", "stret": "17843 Colima Rd", "city": "City of Industry", "state": "California", "countryCode": "US", "url": "https://www.google.com/maps/search/?api=1&query=USCIS%20Application%20Support%20Center%20(ASC)&query_place_id=ChIJ51ckgaHRwoARL9nCp7xU_Oc"}}, {"type": "Feature", "geometry": {"type": "Point", "coordinates": [40.8070016, -73.0408161]}, "properties": {"title": "USCIS Long Island NY Field Office", "stret": "30 Barretts Ave", "city": "Holtsville", "state": "New York", "countryCode": "US", "url": "https://www.google.com/maps/search/?api=1&query=USCIS%20Long%20Island%20NY%20Field%20Office&query_place_id=ChIJ-yrFcoBI6IkR-QzqmXDLTdo"}}, {"type": "Feature", "geometry": {"type": "Point", "coordinates": [40.806332, -73.2161423]}, "properties": {"title": "USCIS Application Support Center (ASC)", "stret": "330 Wheeler Rd", "city": "Hauppauge", "state": "New York", "countryCode": "US", "url": "https://www.google.com/maps/search/?api=1&query=USCIS%20Application%20Support%20Center%20(ASC)&query_place_id=ChIJQZGpUgSBwokRh22HyM--9ag"}}, {"type": "Feature", "geometry": {"type": "Point", "coordinates": [39.9631321, -82.9900471]}, "properties": {"title": "USCIS Columbus OH Field Office", "stret": "395 E Broad St #100", "city": "Columbus", "state": "Ohio", "countryCode": "US", "url": "https://www.google.com/maps/search/?api=1&query=USCIS%20Columbus%20OH%20Field%20Office&query_place_id=ChIJDQMQmc2IOIgRh7IhNrqUbOA"}}, {"type": "Feature", "geometry": {"type": "Point", "coordinates": [40.1081626, -82.932593]}, "properties": {"title": "USCIS Columbus Field Office", "stret": "675 Brooksedge Blvd", "city": "Westerville", "state": "Ohio", "countryCode": "US", "url": "https://www.google.com/maps/search/?api=1&query=USCIS%20Columbus%20Field%20Office&query_place_id=ChIJww29FEaPOIgRrThzpOYjk5Q"}}, {"type": "Feature", "geometry": {"type": "Point", "coordinates": [40.0841441, -82.9263945]}, "properties": {"title": "Application Support Center (USCIS-Fingerprint Office)", "stret": "5466 Westerville Rd", "city": "Westerville", "state": "Ohio", "countryCode": "US", "url": "https://www.google.com/maps/search/?api=1&query=Application%20Support%20Center%20(USCIS-Fingerprint%20Office)&query_place_id=ChIJCSRCw7eKOIgRqOsl00jsYvw"}}, {"type": "Feature", "geometry": {"type": "Point", "coordinates": [35.8864248, -78.8456596]}, "properties": {"title": "USCIS Raleigh - Durham Field Office", "stret": "301 Roycroft Dr", "city": "Durham", "state": "North Carolina", "countryCode": "US", "url": "https://www.google.com/maps/search/?api=1&query=USCIS%20Raleigh%20-%20Durham%20Field%20Office&query_place_id=ChIJ40EYJNzvrIkRxxdGSYhgmUA"}}, {"type": "Feature", "geometry": {"type": "Point", "coordinates": [35.8558535, -78.8420578]}, "properties": {"title": "USCIS Application Support Center (ASC)", "stret": "10954 Chapel Hill Rd #101", "city": "Morrisville", "state": "North Carolina", "countryCode": "US", "url": "https://www.google.com/maps/search/?api=1&query=USCIS%20Application%20Support%20Center%20(ASC)&query_place_id=ChIJAwXDMCHurIkRcl9mDCLbk9Y"}}, {"type": "Feature", "geometry": {"type": "Point", "coordinates": [35.8865576, -78.8457181]}, "properties": {"title": "Citizenship & Immigration Services", "stret": "301 Roycroft Dr", "city": "Durham", "state": "North Carolina", "countryCode": "US", "url": "https://www.google.com/maps/search/?api=1&query=Citizenship%20%26%20Immigration%20Services&query_place_id=ChIJ31nCttvvrIkRLsxgvx9MDho"}}, {"type": "Feature", "geometry": {"type": "Point", "coordinates": [43.6115371, -116.2712164]}, "properties": {"title": "USCIS Boise Field Office", "stret": "7180 Potomac Dr", "city": "Boise", "state": "Idaho", "countryCode": "US", "url": "https://www.google.com/maps/search/?api=1&query=USCIS%20Boise%20Field%20Office&query_place_id=ChIJp30k9VlWrlQR_Pi3IOD2rQE"}}, {"type": "Feature", "geometry": {"type": "Point", "coordinates": [32.6034816, -96.8297396]}, "properties": {"title": "USCIS Application Support Center (ASC) - Dallas South ASC", "stret": "1100 Pleasant Run Rd #190", "city": "DeSoto", "state": "Texas", "countryCode": "US", "url": "https://www.google.com/maps/search/?api=1&query=USCIS%20Application%20Support%20Center%20(ASC)%20-%20Dallas%20South%20ASC&query_place_id=ChIJUxrTeAyUToYRyJRJc6bgfuw"}}, {"type": "Feature", "geometry": {"type": "Point", "coordinates": [26.1784572, -97.7141723]}, "properties": {"title": "Department of Homeland Security", "stret": "1709 Zoy St", "city": "Harlingen", "state": "Texas", "countryCode": "US", "url": "https://www.google.com/maps/search/?api=1&query=Department%20of%20Homeland%20Security&query_place_id=ChIJ9zuJQ5eBb4YRa_hOdH0FNwQ"}}, {"type": "Feature", "geometry": {"type": "Point", "coordinates": [29.9507683, -90.0767572]}, "properties": {"title": "USCIS New Orleans Field Office", "stret": "1250 Poydras St #1800", "city": "New Orleans", "state": "Louisiana", "countryCode": "US", "url": "https://www.google.com/maps/search/?api=1&query=USCIS%20New%20Orleans%20Field%20Office&query_place_id=ChIJ00Vo09-lIIYR73kr9CJ51Ok"}}, {"type": "Feature", "geometry": {"type": "Point", "coordinates": [25.9385477, -80.2983378]}, "properties": {"title": "USCIS Hialeah Field Office", "stret": "5880 NW 183rd St", "city": "Hialeah", "state": "Florida", "countryCode": "US", "url": "https://www.google.com/maps/search/?api=1&query=USCIS%20Hialeah%20Field%20Office&query_place_id=ChIJywyGT22l2YgRWc06W7JbZWw"}}, {"type": "Feature", "geometry": {"type": "Point", "coordinates": [25.8557009, -80.2090741]}, "properties": {"title": "USCIS Miami Field Office", "stret": "8801 NW 7th Ave", "city": "Miami", "state": "Florida", "countryCode": "US", "url": "https://www.google.com/maps/search/?api=1&query=USCIS%20Miami%20Field%20Office&query_place_id=ChIJzZpBPnqx2YgRXsPvIPHO9qU"}}, {"type": "Feature", "geometry": {"type": "Point", "coordinates": [25.6561983, -80.4310368]}, "properties": {"title": "USCIS Kendall Field Office", "stret": "14675 SW 120th St", "city": "Miami", "state": "Florida", "countryCode": "US", "url": "https://www.google.com/maps/search/?api=1&query=USCIS%20Kendall%20Field%20Office&query_place_id=ChIJFwXsXpXB2YgR7nGWUHFG5N4"}}, {"type": "Feature", "geometry": {"type": "Point", "coordinates": [25.7328893, -80.3345126]}, "properties": {"title": "USCIS Application Support Center (ASC) Central Miami", "stret": "8586 Bird Rd", "city": "Miami", "state": "Florida", "countryCode": "US", "url": "https://www.google.com/maps/search/?api=1&query=USCIS%20Application%20Support%20Center%20(ASC)%20Central%20Miami&query_place_id=ChIJ80axb_Cl2YgR060eY9LFnQo"}}, {"type": "Feature", "geometry": {"type": "Point", "coordinates": [25.9247604, -80.1673295]}, "properties": {"title": "USCIS Application Support Center (ASC) North Miami", "stret": "1620 NE 163rd St", "city": "North Miami Beach", "state": "Florida", "countryCode": "US", "url": "https://www.google.com/maps/search/?api=1&query=USCIS%20Application%20Support%20Center%20(ASC)%20North%20Miami&query_place_id=ChIJESI62Oat2YgRJr4IHMKmmds"}}, {"type": "Feature", "geometry": {"type": "Point", "coordinates": [25.6561983, -80.4310368]}, "properties": {"title": "USCIS Application Support Center (ASC)", "stret": "14675 SW 120th St", "city": "Miami", "state": "Florida", "countryCode": "US", "url": "https://www.google.com/maps/search/?api=1&query=USCIS%20Application%20Support%20Center%20(ASC)&query_place_id=ChIJi4-RQ2vB2YgRzoF05q6ZjRw"}}, {"type": "Feature", "geometry": {"type": "Point", "coordinates": [25.7318951, -80.3343683]}, "properties": {"title": "USCIS Application Support Center", "stret": "8586 SW 40th St", "city": "Miami", "state": "Florida", "countryCode": "US", "url": "https://www.google.com/maps/search/?api=1&query=USCIS%20Application%20Support%20Center&query_place_id=ChIJXxmM59e52YgRjrdIgQXaWdk"}}, {"type": "Feature", "geometry": {"type": "Point", "coordinates": [25.8555646, -80.2088631]}, "properties": {"title": "USCIS Application Support Center (ASC)", "stret": "8801 NW 7th Ave", "city": "Miami", "state": "Florida", "countryCode": "US", "url": "https://www.google.com/maps/search/?api=1&query=USCIS%20Application%20Support%20Center%20(ASC)&query_place_id=ChIJ0WfQZrCx2YgRMX1Ft53-Nug"}}, {"type": "Feature", "geometry": {"type": "Point", "coordinates": [41.5046806, -81.6917547]}, "properties": {"title": "USCIS District Office", "stret": "2085, 1240 E 9th St Room 501", "city": "Cleveland", "state": "Ohio", "countryCode": "US", "url": "https://www.google.com/maps/search/?api=1&query=USCIS%20District%20Office&query_place_id=ChIJPRVbkGLxMIgReh6b6Q4rnf8"}}, {"type": "Feature", "geometry": {"type": "Point", "coordinates": [39.9894296, -76.6575701]}, "properties": {"title": "USCIS Application Support Center (ASC)", "stret": "Meadowlands Business Park, 8698, 3516 Concord Rd", "city": "York", "state": "Pennsylvania", "countryCode": "US", "url": "https://www.google.com/maps/search/?api=1&query=USCIS%20Application%20Support%20Center%20(ASC)&query_place_id=ChIJ3W-dxZuPyIkRT8UHmNAUSYI"}}, {"type": "Feature", "geometry": {"type": "Point", "coordinates": [33.8482467, -84.2500314]}, "properties": {"title": "USCIS Atlanta Field Office", "stret": "2150 Parklake Dr NE", "city": "Atlanta", "state": "Georgia", "countryCode": "US", "url": "https://www.google.com/maps/search/?api=1&query=USCIS%20Atlanta%20Field%20Office&query_place_id=ChIJA_YzaOen9YgRFPTvEFV--Xc"}}, {"type": "Feature", "geometry": {"type": "Point", "coordinates": [37.6847122, -97.346381]}, "properties": {"title": "USCIS Wichita Field Office", "stret": "550 W Douglas Ave", "city": "Wichita", "state": "Kansas", "countryCode": "US", "url": "https://www.google.com/maps/search/?api=1&query=USCIS%20Wichita%20Field%20Office&query_place_id=ChIJrTodj33juocRiY_4dOH_vuQ"}}, {"type": "Feature", "geometry": {"type": "Point", "coordinates": [37.6847122, -97.346381]}, "properties": {"title": "USCIS Application Support Center (ASC)", "stret": "550 W Douglas Ave", "city": "Wichita", "state": "Kansas", "countryCode": "US", "url": "https://www.google.com/maps/search/?api=1&query=USCIS%20Application%20Support%20Center%20(ASC)&query_place_id=ChIJJa9V8QvjuocR_sznWoqA-wo"}}, {"type": "Feature", "geometry": {"type": "Point", "coordinates": [41.7465093, -87.7423221]}, "properties": {"title": "USCIS Application Support Center (ASC) Chicago South", "stret": "8004B S Cicero Ave", "city": "Burbank", "state": "Illinois", "countryCode": "US", "url": "https://www.google.com/maps/search/?api=1&query=USCIS%20Application%20Support%20Center%20(ASC)%20Chicago%20South&query_place_id=ChIJ1_Oo54UwDogRveleLBGzZzI"}}, {"type": "Feature", "geometry": {"type": "Point", "coordinates": [41.8753905, -87.6309402]}, "properties": {"title": "USCIS Chicago Field Office", "stret": "101 W Ida B. Wells Dr", "city": "Chicago", "state": "Illinois", "countryCode": "US", "url": "https://www.google.com/maps/search/?api=1&query=USCIS%20Chicago%20Field%20Office&query_place_id=ChIJtS_nf70sDogR4lv2vX9BAiY"}}, {"type": "Feature", "geometry": {"type": "Point", "coordinates": [41.8753426, -87.6310491]}, "properties": {"title": "USCIS District Office", "stret": "101 W Congress Pkwy", "city": "Chicago", "state": "Illinois", "countryCode": "US", "url": "https://www.google.com/maps/search/?api=1&query=USCIS%20District%20Office&query_place_id=ChIJJUE2dhstDogRfniZcyh_t8g"}}, {"type": "Feature", "geometry": {"type": "Point", "coordinates": [41.8749046, -87.6315155]}, "properties": {"title": "U.S. Citizenship & Immigration Services", "stret": "101 W Congress Pkwy", "city": "Chicago", "state": "Illinois", "countryCode": "US", "url": "https://www.google.com/maps/search/?api=1&query=U.S.%20Citizenship%20%26%20Immigration%20Services&query_place_id=ChIJwWIP1JcsDogRMP8zJ7cZn7M"}}, {"type": "Feature", "geometry": {"type": "Point", "coordinates": [41.755185, -88.2041695]}, "properties": {"title": "USCIS Application Support Center (ASC)", "stret": "888 S, 888 Illinois Rte 59 #124", "city": "Naperville", "state": "Illinois", "countryCode": "US", "url": "https://www.google.com/maps/search/?api=1&query=USCIS%20Application%20Support%20Center%20(ASC)&query_place_id=ChIJj6UfCi74DogRbgMXW0hw1Bw"}}, {"type": "Feature", "geometry": {"type": "Point", "coordinates": [41.7561792, -88.215934]}, "properties": {"title": "Immigration Medical Specialty", "stret": "4075 Fox Valley Center Dr", "city": "Aurora", "state": "Illinois", "countryCode": "US", "url": "https://www.google.com/maps/search/?api=1&query=Immigration%20Medical%20Specialty&query_place_id=ChIJS74cG9D5DogRZ_CpNfb3R8Y"}}, {"type": "Feature", "geometry": {"type": "Point", "coordinates": [41.7623421, -87.9149256]}, "properties": {"title": "Green Card Gateway Regional Center", "stret": "100 Tower Dr #131", "city": "Burr Ridge", "state": "Illinois", "countryCode": "US", "url": "https://www.google.com/maps/search/?api=1&query=Green%20Card%20Gateway%20Regional%20Center&query_place_id=ChIJj0J8EsBIDogRIRHB8ZOBJas"}}, {"type": "Feature", "geometry": {"type": "Point", "coordinates": [39.9586409, -75.2052953]}, "properties": {"title": "United States Citizenship and Immigration Services", "stret": "30 N 41st St", "city": "Philadelphia", "state": "Pennsylvania", "countryCode": "US", "url": "https://www.google.com/maps/search/?api=1&query=United%20States%20Citizenship%20and%20Immigration%20Services&query_place_id=ChIJ72OuP_nGxokRLbgDE-QX4SE"}}, {"type": "Feature", "geometry": {"type": "Point", "coordinates": [18.3461536, -64.8679815]}, "properties": {"title": "United States Citizenship and Immigration Services", "stret": "6080 Estate Smith Bay", "city": "Frydendal", "state": "St Thomas", "countryCode": "VI", "url": "https://www.google.com/maps/search/?api=1&query=United%20States%20Citizenship%20and%20Immigration%20Services&query_place_id=ChIJo-y9MjERBYwRWGAbjhbke1w"}}, {"type": "Feature", "geometry": {"type": "Point", "coordinates": [33.5619105, -101.9234112]}, "properties": {"title": "USCIS Application Support Center (ASC)", "stret": "2547, 3502 Slide Rd Suite A-24", "city": "Lubbock", "state": "TX", "countryCode": "US", "url": "https://www.google.com/maps/search/?api=1&query=USCIS%20Application%20Support%20Center%20(ASC)&query_place_id=ChIJERae1tpy_oYRYEbDGRPSNkc"}}, {"type": "Feature", "geometry": {"type": "Point", "coordinates": [29.9179779, -93.9482651]}, "properties": {"title": "Immigration Services", "stret": "4140 Everglades Ave", "city": "Port Arthur", "state": "Texas", "countryCode": "US", "url": "https://www.google.com/maps/search/?api=1&query=Immigration%20Services&query_place_id=ChIJiQUTYICwPoYR-YynJL_ycNs"}}, {"type": "Feature", "geometry": {"type": "Point", "coordinates": [40.4256596, -79.8114094]}, "properties": {"title": "USCIS Pittsburgh Field Office", "stret": "777, Penn Center East, Building 7, 777 Penn Center Blvd Suite 600", "city": "Pittsburgh", "state": "PA", "countryCode": "US", "url": "https://www.google.com/maps/search/?api=1&query=USCIS%20Pittsburgh%20Field%20Office&query_place_id=ChIJd3EV92DpNIgRBvhsSnj3Fds"}}, {"type": "Feature", "geometry": {"type": "Point", "coordinates": [20.8874793, -156.5052214]}, "properties": {"title": "Maui Immigrant Services", "stret": "2200 Main St #547", "city": "Wailuku", "state": "Hawaii", "countryCode": "US", "url": "https://www.google.com/maps/search/?api=1&query=Maui%20Immigrant%20Services&query_place_id=ChIJaYT1eWnTVHkRkGtpl6_aog8"}}, {"type": "Feature", "geometry": {"type": "Point", "coordinates": [40.9121111, -98.377247]}, "properties": {"title": "Grand Island Immigration and customs enforcement office", "stret": "703 S Webb Rd Suite D", "city": "Grand Island", "state": "Nebraska", "countryCode": "US", "url": "https://www.google.com/maps/search/?api=1&query=Grand%20Island%20Immigration%20and%20customs%20enforcement%20office&query_place_id=ChIJ4aoNagCHmYcR-nXQEHlw9Xs"}}, {"type": "Feature", "geometry": {"type": "Point", "coordinates": [42.532877, -83.7814792]}, "properties": {"title": "The Law Offices of Luke Bowman", "stret": "120 Flint Rd", "city": "Brighton", "state": "Michigan", "countryCode": "US", "url": "https://www.google.com/maps/search/?api=1&query=The%20Law%20Offices%20of%20Luke%20Bowman&query_place_id=ChIJdWNGJMRNI4gRmQtm-dUfEqk"}}, {"type": "Feature", "geometry": {"type": "Point", "coordinates": [36.9176088, -84.0590504]}, "properties": {"title": "U.S. Citizenship and Immigration Services (USCIS)", "stret": "203 Allison Blvd", "city": "Corbin", "state": "Kentucky", "countryCode": "US", "url": "https://www.google.com/maps/search/?api=1&query=U.S.%20Citizenship%20and%20Immigration%20Services%20(USCIS)&query_place_id=ChIJyTgEFTnFXIgRGxKb68CveIo"}}, {"type": "Feature", "geometry": {"type": "Point", "coordinates": [38.9524242, -77.3508559]}, "properties": {"title": "Maken Law Offices Immigration and Litigation PLLC.", "stret": "11710 Plaza America Dr Suite 200", "city": "Reston", "state": "Virginia", "countryCode": "US", "url": "https://www.google.com/maps/search/?api=1&query=Maken%20Law%20Offices%20Immigration%20and%20Litigation%20PLLC.&query_place_id=ChIJFSLVlRFJtokRLp8cXp-SFyQ"}}, {"type": "Feature", "geometry": {"type": "Point", "coordinates": [41.965074, -87.8358578]}, "properties": {"title": "USCIS Application Support Center (ASC)", "stret": "4701 N Cumberland Ave 1-3 B, C, D", "city": "Norridge", "state": "Illinois", "countryCode": "US", "url": "https://www.google.com/maps/search/?api=1&query=USCIS%20Application%20Support%20Center%20(ASC)&query_place_id=ChIJ7c0CHxbKD4gRplrqskzT2nw"}}, {"type": "Feature", "geometry": {"type": "Point", "coordinates": [42.0510448, -88.040083]}, "properties": {"title": "Chicago Area Immigration Services", "stret": "1600 E Golf Rd", "city": "Schaumburg", "state": "Illinois", "countryCode": "US", "url": "https://www.google.com/maps/search/?api=1&query=Chicago%20Area%20Immigration%20Services&query_place_id=ChIJnTY6GJCvD4gRDNUcvqjAsRc"}}, {"type": "Feature", "geometry": {"type": "Point", "coordinates": [42.3587399, -87.8734398]}, "properties": {"title": "USCIS Application Support Center (ASC)", "stret": "25 S Green Bay Rd", "city": "Waukegan", "state": "Illinois", "countryCode": "US", "url": "https://www.google.com/maps/search/?api=1&query=USCIS%20Application%20Support%20Center%20(ASC)&query_place_id=ChIJtUBIbb6SD4gR2jlD0_1Yx84"}}, {"type": "Feature", "geometry": {"type": "Point", "coordinates": [41.2805495, -95.9085835]}, "properties": {"title": "USCIS Omaha Field Office", "stret": "1717 Ave H East", "city": "Omaha", "state": "Nebraska", "countryCode": "US", "url": "https://www.google.com/maps/search/?api=1&query=USCIS%20Omaha%20Field%20Office&query_place_id=ChIJ97xNwPqPk4cR8i6CeDUjemI"}}, {"type": "Feature", "geometry": {"type": "Point", "coordinates": [28.3061468, -81.439315]}, "properties": {"title": "Kissimmee Immigration Services. All Related Services.", "stret": "3501 W Vine St Suite 517", "city": "Kissimmee", "state": "Florida", "countryCode": "US", "url": "https://www.google.com/maps/search/?api=1&query=Kissimmee%20Immigration%20Services.%20All%20Related%20Services.&query_place_id=ChIJt4mEf_CD3YgRmLE6QposbOg"}}, {"type": "Feature", "geometry": {"type": "Point", "coordinates": [39.007204, -84.635831]}, "properties": {"title": "Larisa Schneider Attorney at Law", "stret": "75 Cavalier Blvd Ste 217", "city": "Florence", "state": "Kentucky", "countryCode": "US", "url": "https://www.google.com/maps/search/?api=1&query=Larisa%20Schneider%20Attorney%20at%20Law&query_place_id=ChIJxzCHv7jHQYgRjXiJfday0MM"}}, {"type": "Feature", "geometry": {"type": "Point", "coordinates": [27.9992052, -82.5321644]}, "properties": {"title": "USCIS Tampa Field Office", "stret": "5629 Hoover Blvd", "city": "Tampa", "state": "Florida", "countryCode": "US", "url": "https://www.google.com/maps/search/?api=1&query=USCIS%20Tampa%20Field%20Office&query_place_id=ChIJhbI-9ibCwogRxwILKEVAGxE"}}, {"type": "Feature", "geometry": {"type": "Point", "coordinates": [28.0451133, -82.5133831]}, "properties": {"title": "USCIS Application Support Center (ASC)", "stret": "4313 Gunn Hwy", "city": "Tampa", "state": "Florida", "countryCode": "US", "url": "https://www.google.com/maps/search/?api=1&query=USCIS%20Application%20Support%20Center%20(ASC)&query_place_id=ChIJmUqbFunBwogRKxjCywAXRL0"}}, {"type": "Feature", "geometry": {"type": "Point", "coordinates": [28.0251401, -82.4868924]}, "properties": {"title": "U.S. Citizenship And Immigration Services", "stret": null, "city": "Egypt Lake-Leto", "state": "Florida", "countryCode": "US", "url": "https://www.google.com/maps/search/?api=1&query=U.S.%20Citizenship%20And%20Immigration%20Services&query_place_id=ChIJAUkJFzjBwogRiwSb6mEpVd4"}}, {"type": "Feature", "geometry": {"type": "Point", "coordinates": [27.9803097, -82.3505077]}, "properties": {"title": "USCIS Tampa Asylum Office", "stret": "3924 Coconut Palm Dr", "city": "Tampa", "state": "Florida", "countryCode": "US", "url": "https://www.google.com/maps/search/?api=1&query=USCIS%20Tampa%20Asylum%20Office&query_place_id=ChIJMbyLxO_DwogRN8NlEPeBeKA"}}, {"type": "Feature", "geometry": {"type": "Point", "coordinates": [27.9992776, -82.5322636]}, "properties": {"title": "USCIS Application Support Center (ASC)", "stret": "5629 Hoover Blvd", "city": "Tampa", "state": "Florida", "countryCode": "US", "url": "https://www.google.com/maps/search/?api=1&query=USCIS%20Application%20Support%20Center%20(ASC)&query_place_id=ChIJWe-r9ybCwogRhiSdS7eXp6o"}}, {"type": "Feature", "geometry": {"type": "Point", "coordinates": [27.9804481, -82.3501737]}, "properties": {"title": "Uscis", "stret": "3924 Coconut Palm Dr", "city": "Tampa", "state": "Florida", "countryCode": "US", "url": "https://www.google.com/maps/search/?api=1&query=Uscis&query_place_id=ChIJa2sABADPwogR_x1kLPPcWMQ"}}, {"type": "Feature", "geometry": {"type": "Point", "coordinates": [27.9521045, -82.5403366]}, "properties": {"title": "USCIS", "stret": "5524 W Cypress St", "city": "Tampa", "state": "Florida", "countryCode": "US", "url": "https://www.google.com/maps/search/?api=1&query=USCIS&query_place_id=ChIJC_wKQUjDwogR6VV_MnRsq0Y"}}, {"type": "Feature", "geometry": {"type": "Point", "coordinates": [46.618624, -112.0293206]}, "properties": {"title": "USCIS Application Support Center (ASC)", "stret": "1230, 754 River Rock Dr Suite 101", "city": "Helena", "state": "Montana", "countryCode": "US", "url": "https://www.google.com/maps/search/?api=1&query=USCIS%20Application%20Support%20Center%20(ASC)&query_place_id=ChIJ4x3hlwhVQ1MRs2anuNUCdD4"}}, {"type": "Feature", "geometry": {"type": "Point", "coordinates": [46.6123275, -111.9906539]}, "properties": {"title": "Homeland Security Investigations", "stret": "2800 Skyway Dr", "city": "Helena", "state": "Montana", "countryCode": "US", "url": "https://www.google.com/maps/search/?api=1&query=Homeland%20Security%20Investigations&query_place_id=ChIJh6d00TZUQ1MRjGEv7Bq0AvE"}}, {"type": "Feature", "geometry": {"type": "Point", "coordinates": [38.3225381, -81.5841934]}, "properties": {"title": "USCIS Application Support Center (ASC)", "stret": "4501 MacCorkle Ave SE Suite B", "city": "Charleston", "state": "West Virginia", "countryCode": "US", "url": "https://www.google.com/maps/search/?api=1&query=USCIS%20Application%20Support%20Center%20(ASC)&query_place_id=ChIJIRP7V2wrT4gRitaX6TfWXqE"}}, {"type": "Feature", "geometry": {"type": "Point", "coordinates": [38.3516816, -81.6336148]}, "properties": {"title": "US Immigration & Ntrlztn", "stret": null, "city": "Charleston", "state": "West Virginia", "countryCode": "US", "url": "https://www.google.com/maps/search/?api=1&query=US%20Immigration%20%26%20Ntrlztn&query_place_id=ChIJ_____8wsT4gR-gDtWg9HYPg"}}, {"type": "Feature", "geometry": {"type": "Point", "coordinates": [27.333716, -82.5433763]}, "properties": {"title": "Sarasota immigration Services", "stret": "345 Gulfstream Ave", "city": "Sarasota", "state": "Florida", "countryCode": "US", "url": "https://www.google.com/maps/search/?api=1&query=Sarasota%20immigration%20Services&query_place_id=ChIJ7eLPUzP004cRhxi_PCyap0I"}}, {"type": "Feature", "geometry": {"type": "Point", "coordinates": [27.281115, -82.4969965]}, "properties": {"title": "Immigration documents", "stret": "3620 Aster Dr", "city": "Sarasota", "state": "Florida", "countryCode": "US", "url": "https://www.google.com/maps/search/?api=1&query=Immigration%20documents&query_place_id=ChIJJ7pqFMXlqq4RCDVrAA3qoHE"}}, {"type": "Feature", "geometry": {"type": "Point", "coordinates": [30.337888, -97.7141081]}, "properties": {"title": "Buzgova, Meneses & Wellington Smith, LLP", "stret": "7201 Guadalupe St", "city": "Austin", "state": "Texas", "countryCode": "US", "url": "https://www.google.com/maps/search/?api=1&query=Buzgova%2C%20Meneses%20%26%20Wellington%20Smith%2C%20LLP&query_place_id=ChIJ-1HKTnS1RIYRs-4Vx1AOzXA"}}, {"type": "Feature", "geometry": {"type": "Point", "coordinates": [30.2635186, -97.74358]}, "properties": {"title": "Jason Finkelman, Attorney at Law, PLLC", "stret": "One Congress Plaza, 100 Congress Ave. Ste. 2000", "city": "Austin", "state": "Texas", "countryCode": "US", "url": "https://www.google.com/maps/search/?api=1&query=Jason%20Finkelman%2C%20Attorney%20at%20Law%2C%20PLLC&query_place_id=ChIJnStBKQa1RIYRfmH5-CATVyw"}}, {"type": "Feature", "geometry": {"type": "Point", "coordinates": [42.3732257, -122.8664145]}, "properties": {"title": "Us Immigration And Customs Enforcement", "stret": "3715 International Way", "city": "Medford", "state": "Oregon", "countryCode": "US", "url": "https://www.google.com/maps/search/?api=1&query=Us%20Immigration%20And%20Customs%20Enforcement&query_place_id=ChIJ6SKPL3t7z1QRiq6Mf78xNbo"}}, {"type": "Feature", "geometry": {"type": "Point", "coordinates": [29.1197605, -81.0010225]}, "properties": {"title": "Immigos", "stret": "3930 S Nova Rd Ste. 306", "city": "Port Orange", "state": "Florida", "countryCode": "US", "url": "https://www.google.com/maps/search/?api=1&query=Immigos&query_place_id=ChIJF7Tnq7pJWEsRh094E2dNfzQ"}}, {"type": "Feature", "geometry": {"type": "Point", "coordinates": [40.6366324, -73.9875984]}, "properties": {"title": "Green Visa", "stret": "1368 44th St", "city": "Brooklyn", "state": "New York", "countryCode": "US", "url": "https://www.google.com/maps/search/?api=1&query=Green%20Visa&query_place_id=ChIJI9DW_V1FwokRYpUIYchO0D8"}}, {"type": "Feature", "geometry": {"type": "Point", "coordinates": [40.485661, -74.2819565]}, "properties": {"title": "Heckler Law Group", "stret": "169 N Broadway", "city": "South Amboy", "state": "New Jersey", "countryCode": "US", "url": "https://www.google.com/maps/search/?api=1&query=Heckler%20Law%20Group&query_place_id=ChIJSVnzjLXVw4kRkaNTilA8iIU"}}, {"type": "Feature", "geometry": {"type": "Point", "coordinates": [40.7078278, -74.0056597]}, "properties": {"title": "The Law Firm of Moumita Rahman, PLLC", "stret": "111 John St Suite 1260", "city": "Manhattan", "state": "New York", "countryCode": "US", "url": "https://www.google.com/maps/search/?api=1&query=The%20Law%20Firm%20of%20Moumita%20Rahman%2C%20PLLC&query_place_id=ChIJ_Wl47RZawokRn92lB1SKgJQ"}}, {"type": "Feature", "geometry": {"type": "Point", "coordinates": [40.6928195, -73.9821828]}, "properties": {"title": "Feodoroff Law PLLC", "stret": "147 Prince St", "city": "Brooklyn", "state": "New York", "countryCode": "US", "url": "https://www.google.com/maps/search/?api=1&query=Feodoroff%20Law%20PLLC&query_place_id=ChIJi1pfnHtbwokRJobGsixkTb8"}}, {"type": "Feature", "geometry": {"type": "Point", "coordinates": [40.758913, -73.8306659]}, "properties": {"title": "US International Students Services Center", "stret": "13529 40th Rd", "city": "Flushing", "state": "New York", "countryCode": "US", "url": "https://www.google.com/maps/search/?api=1&query=US%20International%20Students%20Services%20Center&query_place_id=ChIJR6LJGw5gwokR0a2dvdnSe2I"}}, {"type": "Feature", "geometry": {"type": "Point", "coordinates": [40.5999438, -73.9470582]}, "properties": {"title": "Law Offices of Marina Shepelsky, P.C.", "stret": "2415 Avenue U Suite #2 Rear", "city": "Brooklyn", "state": "New York", "countryCode": "US", "url": "https://www.google.com/maps/search/?api=1&query=Law%20Offices%20of%20Marina%20Shepelsky%2C%20P.C.&query_place_id=ChIJr2aBHPNEwokRKti3fB6tI9w"}}, {"type": "Feature", "geometry": {"type": "Point", "coordinates": [40.608488, -73.958419]}, "properties": {"title": "Immigrant Support Group, Inc.", "stret": "1426 Kings Hwy floor 2", "city": "Brooklyn", "state": "New York", "countryCode": "US", "url": "https://www.google.com/maps/search/?api=1&query=Immigrant%20Support%20Group%2C%20Inc.&query_place_id=ChIJ5TsCpJREwokRowOkbneamE8"}}, {"type": "Feature", "geometry": {"type": "Point", "coordinates": [40.7148274, -73.831194]}, "properties": {"title": "Immigration Support Center", "stret": "118-35 Queens Blvd #400", "city": "Forest Hills", "state": "New York", "countryCode": "US", "url": "https://www.google.com/maps/search/?api=1&query=Immigration%20Support%20Center&query_place_id=ChIJmztpd2lhwokRe43BilF-RA8"}}, {"type": "Feature", "geometry": {"type": "Point", "coordinates": [40.7259556, -73.8947454]}, "properties": {"title": "Khashmati Law, P. C.", "stret": "69-06 Grand Ave", "city": "Maspeth", "state": "New York", "countryCode": "US", "url": "https://www.google.com/maps/search/?api=1&query=Khashmati%20Law%2C%20P.%20C.&query_place_id=ChIJ_fM4iPNewokRKTkuSyNvuXE"}}, {"type": "Feature", "geometry": {"type": "Point", "coordinates": [40.836613, -73.853586]}, "properties": {"title": "Immigration Service", "stret": "2145 Starling Ave Apt 529", "city": "Bronx", "state": "New York", "countryCode": "US", "url": "https://www.google.com/maps/search/?api=1&query=Immigration%20Service&query_place_id=ChIJszG0TSf1wokRL9thPZeLf5U"}}, {"type": "Feature", "geometry": {"type": "Point", "coordinates": [40.6981243, -73.7277662]}, "properties": {"title": "New York Asylum", "stret": "1 Cross Island Pkwy # 306", "city": "Jamaica", "state": "New York", "countryCode": "US", "url": "https://www.google.com/maps/search/?api=1&query=New%20York%20Asylum&query_place_id=ChIJk7I6ZepjwokRtYpVDNViX_A"}}, {"type": "Feature", "geometry": {"type": "Point", "coordinates": [37.3352756, -121.8915252]}, "properties": {"title": "Sadri Law, P.C.", "stret": "84 W Santa Clara St Suite 700 Suite 700", "city": "San Jose", "state": "California", "countryCode": "US", "url": "https://www.google.com/maps/search/?api=1&query=Sadri%20Law%2C%20P.C.&query_place_id=ChIJT2h6EZDNj4AR3xZtHq7lSUs"}}, {"type": "Feature", "geometry": {"type": "Point", "coordinates": [40.6814544, -73.9563636]}, "properties": {"title": "Immigration Services by Saidou", "stret": "1133 Fulton St APT 2", "city": "Brooklyn", "state": "New York", "countryCode": "US", "url": "https://www.google.com/maps/search/?api=1&query=Immigration%20Services%20by%20Saidou&query_place_id=ChIJq6p2zZlbwokRmA6KGb6v9yQ"}}, {"type": "Feature", "geometry": {"type": "Point", "coordinates": [37.3295301, -121.7970918]}, "properties": {"title": "Law Office of Lina Baroudi", "stret": "2680 S White Rd Ste. 151", "city": "San Jose", "state": "California", "countryCode": "US", "url": "https://www.google.com/maps/search/?api=1&query=Law%20Office%20of%20Lina%20Baroudi&query_place_id=ChIJ5d7jym7Lj4ARwHOV0-yChrU"}}, {"type": "Feature", "geometry": {"type": "Point", "coordinates": [32.8975805, -96.9783169]}, "properties": {"title": "USCIS Dallas Field Office", "stret": "6500 Campus Cir Dr E", "city": "Irving", "state": "Texas", "countryCode": "US", "url": "https://www.google.com/maps/search/?api=1&query=USCIS%20Dallas%20Field%20Office&query_place_id=ChIJX7H3yfgpTIYRr9RzU9ou6-0"}}, {"type": "Feature", "geometry": {"type": "Point", "coordinates": [41.9800236, -87.6925338]}, "properties": {"title": "Procedimientos Migratorios", "stret": "5415 N Lincoln Ave", "city": "Chicago", "state": "Illinois", "countryCode": "US", "url": "https://www.google.com/maps/search/?api=1&query=Procedimientos%20Migratorios&query_place_id=ChIJNwfXCfjRD4gRh2RxsjWM1iE"}}, {"type": "Feature", "geometry": {"type": "Point", "coordinates": [41.9583682, -87.7441401]}, "properties": {"title": "McEntee Law Group", "stret": "4245 N Knox Ave", "city": "Chicago", "state": "Illinois", "countryCode": "US", "url": "https://www.google.com/maps/search/?api=1&query=McEntee%20Law%20Group&query_place_id=ChIJtUivclTTD4gRQK3PTk1umj8"}}, {"type": "Feature", "geometry": {"type": "Point", "coordinates": [33.4927908, -112.0911249]}, "properties": {"title": "AZ Immigration", "stret": "3841 N 15th Ave", "city": "Phoenix", "state": "Arizona", "countryCode": "US", "url": "https://www.google.com/maps/search/?api=1&query=AZ%20Immigration&query_place_id=ChIJG1pCwfwSK4cRgLHFtszrLh8"}}, {"type": "Feature", "geometry": {"type": "Point", "coordinates": [33.4654609, -112.0677075]}, "properties": {"title": "Phoenix Immigration Center", "stret": "333 E McDowell Rd", "city": "Phoenix", "state": "Arizona", "countryCode": "US", "url": "https://www.google.com/maps/search/?api=1&query=Phoenix%20Immigration%20Center&query_place_id=ChIJc5jSKCQTK4cR10KzX7EJWt8"}}, {"type": "Feature", "geometry": {"type": "Point", "coordinates": [34.0562625, -118.4484035]}, "properties": {"title": "Federal Building", "stret": "Wilshire Federal Building, 11000 Wilshire Blvd", "city": "Los Angeles", "state": "California", "countryCode": "US", "url": "https://www.google.com/maps/search/?api=1&query=Federal%20Building&query_place_id=ChIJI4ZwoH27woARXKRQ-9Qe8pI"}}, {"type": "Feature", "geometry": {"type": "Point", "coordinates": [33.432559, -112.0409604]}, "properties": {"title": "USCIS", "stret": "1820 E Sky Harbor Cir S #100", "city": "Phoenix", "state": "Arizona", "countryCode": "US", "url": "https://www.google.com/maps/search/?api=1&query=USCIS&query_place_id=ChIJw9Q0_xgOK4cRk55QWh2ifGE"}}, {"type": "Feature", "geometry": {"type": "Point", "coordinates": [29.9467642, -95.4275201]}, "properties": {"title": "USCIS Houston Field Office", "stret": "810 Gears Rd #100", "city": "Houston", "state": "Texas", "countryCode": "US", "url": "https://www.google.com/maps/search/?api=1&query=USCIS%20Houston%20Field%20Office&query_place_id=ChIJs9baUyTJQIYRK0-wsUBIAms"}}, {"type": "Feature", "geometry": {"type": "Point", "coordinates": [34.0650997, -118.3733621]}, "properties": {"title": "Law Office of Ali Elachkar", "stret": "8383 Wilshire Blvd Suite 750", "city": "Beverly Hills", "state": "California", "countryCode": "US", "url": "https://www.google.com/maps/search/?api=1&query=Law%20Office%20of%20Ali%20Elachkar&query_place_id=ChIJ-dkdf_jHwoARttHM6Ntqp8c"}}, {"type": "Feature", "geometry": {"type": "Point", "coordinates": [34.062398, -118.2866671]}, "properties": {"title": "JCS Immigration & Visa Law Office", "stret": "2975 Wilshire Blvd Suite 352", "city": "Los Angeles", "state": "California", "countryCode": "US", "url": "https://www.google.com/maps/search/?api=1&query=JCS%20Immigration%20%26%20Visa%20Law%20Office&query_place_id=ChIJ5WdZs3DHwoARDuOMDQN0sIM"}}, {"type": "Feature", "geometry": {"type": "Point", "coordinates": [34.1783173, -118.4483928]}, "properties": {"title": "United Nations Immigration Services", "stret": "5924 Van Nuys Blvd", "city": "Sherman Oaks", "state": "California", "countryCode": "US", "url": "https://www.google.com/maps/search/?api=1&query=United%20Nations%20Immigration%20Services&query_place_id=ChIJDUrDxg-XwoARMcbIwvEXzY4"}}, {"type": "Feature", "geometry": {"type": "Point", "coordinates": [39.9506895, -75.1603296]}, "properties": {"title": "United States Immigration & Investment Services", "stret": "1201 Chestnut St", "city": "Philadelphia", "state": "Pennsylvania", "countryCode": "US", "url": "https://www.google.com/maps/search/?api=1&query=United%20States%20Immigration%20%26%20Investment%20Services&query_place_id=ChIJq6q60ijGxokRtSRMmHgdx5Y"}}, {"type": "Feature", "geometry": {"type": "Point", "coordinates": [39.9538838, -75.1531302]}, "properties": {"title": "DHS Ice Philadelphia", "stret": "114 N 8th St", "city": "Philadelphia", "state": "Pennsylvania", "countryCode": "US", "url": "https://www.google.com/maps/search/?api=1&query=DHS%20Ice%20Philadelphia&query_place_id=ChIJu2cCE4XIxokRVA9fFQZd4oM"}}, {"type": "Feature", "geometry": {"type": "Point", "coordinates": [32.8241818, -117.1543605]}, "properties": {"title": "Immigration Attorney - Law Offices of Peter D. Chu", "stret": "4615 Convoy St", "city": "San Diego", "state": "California", "countryCode": "US", "url": "https://www.google.com/maps/search/?api=1&query=Immigration%20Attorney%20-%20Law%20Offices%20of%20Peter%20D.%20Chu&query_place_id=ChIJoQX1GpT_24AR4AgxFxfPtHs"}}, {"type": "Feature", "geometry": {"type": "Point", "coordinates": [32.7666625, -117.1416338]}, "properties": {"title": "Feldman Feldman & Associates PC", "stret": "2221 Camino del Rio S #201", "city": "San Diego", "state": "California", "countryCode": "US", "url": "https://www.google.com/maps/search/?api=1&query=Feldman%20Feldman%20%26%20Associates%20PC&query_place_id=ChIJ076MDhtV2YARFMS89WNiSzs"}}, {"type": "Feature", "geometry": {"type": "Point", "coordinates": [39.921489, -75.170726]}, "properties": {"title": "Palladino, Isbell & Casazza, LLC", "stret": "2316 S Broad St", "city": "Philadelphia", "state": "Pennsylvania", "countryCode": "US", "url": "https://www.google.com/maps/search/?api=1&query=Palladino%2C%20Isbell%20%26%20Casazza%2C%20LLC&query_place_id=ChIJde39RHXJxokRPdDg6LVQGSU"}}, {"type": "Feature", "geometry": {"type": "Point", "coordinates": [40.7087671, -74.0110649]}, "properties": {"title": "Immigration Paralegal Services - Document Preparation", "stret": "115 Broadway", "city": "New York", "state": "New York", "countryCode": "US", "url": "https://www.google.com/maps/search/?api=1&query=Immigration%20Paralegal%20Services%20-%20Document%20Preparation&query_place_id=ChIJue7LRkZbwokRXDHgFV_vxJQ"}}, {"type": "Feature", "geometry": {"type": "Point", "coordinates": [40.703459, -74.0126638]}, "properties": {"title": "Alexander J. Segal ESQ", "stret": "27 Whitehall St 5th floor", "city": "New York", "state": "New York", "countryCode": "US", "url": "https://www.google.com/maps/search/?api=1&query=Alexander%20J.%20Segal%20ESQ&query_place_id=ChIJN2KtQBdawokRc9CShs7Lbo8"}}, {"type": "Feature", "geometry": {"type": "Point", "coordinates": [37.7208907, -122.438098]}, "properties": {"title": "Immigration Consultants", "stret": "4830 Mission St", "city": "San Francisco", "state": "California", "countryCode": "US", "url": "https://www.google.com/maps/search/?api=1&query=Immigration%20Consultants&query_place_id=ChIJccUMAYV-j4AR5v2vFNkXfUY"}}, {"type": "Feature", "geometry": {"type": "Point", "coordinates": [37.7821105, -122.4183587]}, "properties": {"title": "Department of Homeland Security", "stret": "450 Golden Gate Ave #5-5474", "city": "San Francisco", "state": "California", "countryCode": "US", "url": "https://www.google.com/maps/search/?api=1&query=Department%20of%20Homeland%20Security&query_place_id=ChIJVcNxG5qAhYAR1Jh1uK_qNvo"}}, {"type": "Feature", "geometry": {"type": "Point", "coordinates": [38.904107, -77.040998]}, "properties": {"title": "VisaPro Immigration Law Firm", "stret": "1120 Connecticut Ave NW #425", "city": "Washington", "state": "District of Columbia", "countryCode": "US", "url": "https://www.google.com/maps/search/?api=1&query=VisaPro%20Immigration%20Law%20Firm&query_place_id=ChIJHWDjzb63t4kRx75xAKSMNYE"}}, {"type": "Feature", "geometry": {"type": "Point", "coordinates": [38.8951252, -77.0226217]}, "properties": {"title": "US Immigration Review", "stret": null, "city": "Washington", "state": "District of Columbia", "countryCode": "US", "url": "https://www.google.com/maps/search/?api=1&query=US%20Immigration%20Review&query_place_id=ChIJq6qq6pm3t4kRPO-vTCsOXO4"}}, {"type": "Feature", "geometry": {"type": "Point", "coordinates": [38.8952123, -77.0754236]}, "properties": {"title": "Arlington Asylum Office", "stret": "1525 Wilson Blvd STE 300", "city": "Arlington", "state": "Virginia", "countryCode": "US", "url": "https://www.google.com/maps/search/?api=1&query=Arlington%20Asylum%20Office&query_place_id=ChIJ99YonF62t4kRy5TCRDObBEs"}}, {"type": "Feature", "geometry": {"type": "Point", "coordinates": [38.883993, -77.0278274]}, "properties": {"title": "U.S. Immigration and Customs Enforcement", "stret": "500 12th St SW #5600", "city": "Washington", "state": "District of Columbia", "countryCode": "US", "url": "https://www.google.com/maps/search/?api=1&query=U.S.%20Immigration%20and%20Customs%20Enforcement&query_place_id=ChIJnbFW4nW3t4kRa9nDYC3n-Vw"}}, {"type": "Feature", "geometry": {"type": "Point", "coordinates": [35.164335, -80.9095538]}, "properties": {"title": "Department Homeland Security", "stret": "6130 Tyvola Centre Dr", "city": "Charlotte", "state": "North Carolina", "countryCode": "US", "url": "https://www.google.com/maps/search/?api=1&query=Department%20Homeland%20Security&query_place_id=ChIJBfidqTCZVogRM76J_WSgClc"}}, {"type": "Feature", "geometry": {"type": "Point", "coordinates": [35.1370502, -80.8770113]}, "properties": {"title": "USCIS Application Support Center (ASC)", "stret": "910 E Arrowood Rd", "city": "Charlotte", "state": "North Carolina", "countryCode": "US", "url": "https://www.google.com/maps/search/?api=1&query=USCIS%20Application%20Support%20Center%20(ASC)&query_place_id=ChIJMzwH06GeVogRukfCUywehAA"}}, {"type": "Feature", "geometry": {"type": "Point", "coordinates": [35.1469435, -80.8431837]}, "properties": {"title": "Ify Immigration Law Firm", "stret": "6135 Park S Dr suite 510", "city": "Charlotte", "state": "North Carolina", "countryCode": "US", "url": "https://www.google.com/maps/search/?api=1&query=Ify%20Immigration%20Law%20Firm&query_place_id=ChIJhdQWTF4hVIgR_XcpVuYpX3A"}}, {"type": "Feature", "geometry": {"type": "Point", "coordinates": [31.7917821, -106.3725382]}, "properties": {"title": "USCIS El Paso Field Office", "stret": "1545 Hawkins Blvd #167", "city": "El Paso", "state": "Texas", "countryCode": "US", "url": "https://www.google.com/maps/search/?api=1&query=USCIS%20El%20Paso%20Field%20Office&query_place_id=ChIJOdTpTZ1b54YRejTx0c-r8s8"}}, {"type": "Feature", "geometry": {"type": "Point", "coordinates": [32.9005001, -96.720551]}, "properties": {"title": "USCIS Application Support Center (ASC) Dallas North", "stret": "10051 Whitehurst Dr #200", "city": "Dallas", "state": "Texas", "countryCode": "US", "url": "https://www.google.com/maps/search/?api=1&query=USCIS%20Application%20Support%20Center%20(ASC)%20Dallas%20North&query_place_id=ChIJ3duc8dgfTIYRtqMSmb3_7bo"}}, {"type": "Feature", "geometry": {"type": "Point", "coordinates": [34.0333756, -118.4519795]}, "properties": {"title": "Khamoushian Law Group", "stret": "11845 W Olympic Blvd #520", "city": "Los Angeles", "state": "California", "countryCode": "US", "url": "https://www.google.com/maps/search/?api=1&query=Khamoushian%20Law%20Group&query_place_id=ChIJX2S_9-qXwoARGSgEaH8WKuM"}}, {"type": "Feature", "geometry": {"type": "Point", "coordinates": [35.2045876, -89.8235549]}, "properties": {"title": "USCIS Application Support Center (ASC)", "stret": "7174 US-64 Suite #119", "city": "Bartlett", "state": "Tennessee", "countryCode": "US", "url": "https://www.google.com/maps/search/?api=1&query=USCIS%20Application%20Support%20Center%20(ASC)&query_place_id=ChIJF7eBgWWdf4gR3a1bYtFiOks"}}, {"type": "Feature", "geometry": {"type": "Point", "coordinates": [45.5323453, -122.6860623]}, "properties": {"title": "USCIS Portland Field Office", "stret": "1455 NW Overton St #1", "city": "Portland", "state": "Oregon", "countryCode": "US", "url": "https://www.google.com/maps/search/?api=1&query=USCIS%20Portland%20Field%20Office&query_place_id=ChIJr7dIq_0JlVQRvG6fFSYCPYY"}}, {"type": "Feature", "geometry": {"type": "Point", "coordinates": [42.3676842, -82.9704234]}, "properties": {"title": "U.S. Citizenship and Immigration Services Detroit District Office", "stret": "11411 E Jefferson Ave", "city": "Detroit", "state": "Michigan", "countryCode": "US", "url": "https://www.google.com/maps/search/?api=1&query=U.S.%20Citizenship%20and%20Immigration%20Services%20Detroit%20District%20Office&query_place_id=ChIJ6eoZDgDVJIgRQrKJfd0sWNs"}}, {"type": "Feature", "geometry": {"type": "Point", "coordinates": [39.2880994, -76.6167868]}, "properties": {"title": "US Citizenship & Immigrations", "stret": "31 Hopkins Pl # 100", "city": "Baltimore", "state": "Maryland", "countryCode": "US", "url": "https://www.google.com/maps/search/?api=1&query=US%20Citizenship%20%26%20Immigrations&query_place_id=ChIJ1ysp3p8EyIkRuoN3s2zJ8Bk"}}, {"type": "Feature", "geometry": {"type": "Point", "coordinates": [39.2881562, -76.6167255]}, "properties": {"title": "US Exec Office Immigration Review", "stret": "31 Hopkins Pl #440", "city": "Baltimore", "state": "Maryland", "countryCode": "US", "url": "https://www.google.com/maps/search/?api=1&query=US%20Exec%20Office%20Immigration%20Review&query_place_id=ChIJ1ysp3p8EyIkRaMLVu6iNntw"}}, {"type": "Feature", "geometry": {"type": "Point", "coordinates": [29.845828, -95.5042909]}, "properties": {"title": "USCIS, Application Support Center (ASC) Houston NW", "stret": "13155 Northwest Fwy #6307", "city": "Houston", "state": "Texas", "countryCode": "US", "url": "https://www.google.com/maps/search/?api=1&query=USCIS%2C%20Application%20Support%20Center%20(ASC)%20Houston%20NW&query_place_id=ChIJG_0dhpHFQIYRJUWsTvK0ORk"}}, {"type": "Feature", "geometry": {"type": "Point", "coordinates": [36.0645749, -115.2177504]}, "properties": {"title": "USCIS Las Vegas Field Office", "stret": "5650 Badura Ave #100", "city": "Las Vegas", "state": "Nevada", "countryCode": "US", "url": "https://www.google.com/maps/search/?api=1&query=USCIS%20Las%20Vegas%20Field%20Office&query_place_id=ChIJzdyJiDzGyIAR9SYmB74Z9GA"}}, {"type": "Feature", "geometry": {"type": "Point", "coordinates": [32.2218927, -110.9758066]}, "properties": {"title": "U. S. Immigration Court", "stret": "300 W Congress St #300", "city": "Tucson", "state": "Arizona", "countryCode": "US", "url": "https://www.google.com/maps/search/?api=1&query=U.%20S.%20Immigration%20Court&query_place_id=ChIJB6ZyR3j5-hQRfdW5-kOuuYg"}}, {"type": "Feature", "geometry": {"type": "Point", "coordinates": [38.8868057, -77.0108161]}, "properties": {"title": "Kathy Castor", "stret": "Rayburn House Office Building, 2052", "city": "Washington", "state": "DC", "countryCode": "US", "url": "https://www.google.com/maps/search/?api=1&query=Kathy%20Castor&query_place_id=ChIJnWGA3zu1slIRHF-VlZ80_zM"}}, {"type": "Feature", "geometry": {"type": "Point", "coordinates": [39.2811752, -94.6764428]}, "properties": {"title": "USCIS Kansas City Field Office", "stret": "10320 NW Prairie View Rd", "city": "Kansas City", "state": "Missouri", "countryCode": "US", "url": "https://www.google.com/maps/search/?api=1&query=USCIS%20Kansas%20City%20Field%20Office&query_place_id=ChIJ2ZouOMVfwIcRGHwBWp78Ov8"}}, {"type": "Feature", "geometry": {"type": "Point", "coordinates": [25.7739286, -80.1942009]}, "properties": {"title": "Abogado Guerrero", "stret": "28 W Flagler St ST 710", "city": "Miami", "state": "Florida", "countryCode": "US", "url": "https://www.google.com/maps/search/?api=1&query=Abogado%20Guerrero&query_place_id=ChIJl8Zl6Ju22YgRmdIaeAmj52M"}}, {"type": "Feature", "geometry": {"type": "Point", "coordinates": [25.7898932, -80.1888725]}, "properties": {"title": "Miami Asylum Office", "stret": "1501 Biscayne Blvd #300", "city": "Miami", "state": "Florida", "countryCode": "US", "url": "https://www.google.com/maps/search/?api=1&query=Miami%20Asylum%20Office&query_place_id=ChIJ-_QmxZy22YgRnQ7Px2W9ZHI"}}, {"type": "Feature", "geometry": {"type": "Point", "coordinates": [25.7650322, -80.1920532]}, "properties": {"title": "Immigration & Customs Enfrc", "stret": "909 Brickell Plaza", "city": "Miami", "state": "Florida", "countryCode": "US", "url": "https://www.google.com/maps/search/?api=1&query=Immigration%20%26%20Customs%20Enfrc&query_place_id=ChIJI6KEmoO22YgRS6RB1fuzSdg"}}, {"type": "Feature", "geometry": {"type": "Point", "coordinates": [25.7649257, -80.2544185]}, "properties": {"title": "Santana Residency Law - Immigration Attorneys", "stret": "3663 SW 8th St #206", "city": "Miami", "state": "Florida", "countryCode": "US", "url": "https://www.google.com/maps/search/?api=1&query=Santana%20Residency%20Law%20-%20Immigration%20Attorneys&query_place_id=ChIJUXTGMgu32YgRSKH4C2gkx_w"}}, {"type": "Feature", "geometry": {"type": "Point", "coordinates": [35.0013073, -106.6167998]}, "properties": {"title": "U.S. Department of Homeland Security Immigration and Customs Enforcement", "stret": "5441 Watson Dr SE", "city": "Albuquerque", "state": "New Mexico", "countryCode": "US", "url": "https://www.google.com/maps/search/?api=1&query=U.S.%20Department%20of%20Homeland%20Security%20Immigration%20and%20Customs%20Enforcement&query_place_id=ChIJh7QHL0YJIocRgOwEQCGMH1Q"}}, {"type": "Feature", "geometry": {"type": "Point", "coordinates": [37.7434972, -122.1444671]}, "properties": {"title": "East Bay Regional Park District", "stret": "2950 Peralta Oaks Ct", "city": "Oakland", "state": "California", "countryCode": "US", "url": "https://www.google.com/maps/search/?api=1&query=East%20Bay%20Regional%20Park%20District&query_place_id=ChIJIfAYpQmPj4AR7tgIOFQ_Ezo"}}, {"type": "Feature", "geometry": {"type": "Point", "coordinates": [37.8048361, -122.2742207]}, "properties": {"title": "USCIS San Francisco Asylum Office (Oakland)", "stret": "1301 Clay St", "city": "Oakland", "state": "California", "countryCode": "US", "url": "https://www.google.com/maps/search/?api=1&query=USCIS%20San%20Francisco%20Asylum%20Office%20(Oakland)&query_place_id=ChIJ-cWCagCBj4ARRfnLqO7iwWg"}}, {"type": "Feature", "geometry": {"type": "Point", "coordinates": [27.9518076, -82.5398457]}, "properties": {"title": "Dept of Homeland Security I.C.E.", "stret": "5524 W Cypress St", "city": "Tampa", "state": "Florida", "countryCode": "US", "url": "https://www.google.com/maps/search/?api=1&query=Dept%20of%20Homeland%20Security%20I.C.E.&query_place_id=ChIJq6qqqp7DwogRqy3Deqt8SKE"}}, {"type": "Feature", "geometry": {"type": "Point", "coordinates": [27.9453966, -82.4582997]}, "properties": {"title": "Emel Ersan Law Office", "stret": "100 N Tampa St # 2670", "city": "Tampa", "state": "Florida", "countryCode": "US", "url": "https://www.google.com/maps/search/?api=1&query=Emel%20Ersan%20Law%20Office&query_place_id=ChIJ-0X4N4nEwogRgFJ3X1OqaWE"}}, {"type": "Feature", "geometry": {"type": "Point", "coordinates": [28.0353336, -82.4875011]}, "properties": {"title": "Wynter Law Practice", "stret": "2701 W Busch Blvd Suite 206", "city": "Tampa", "state": "Florida", "countryCode": "US", "url": "https://www.google.com/maps/search/?api=1&query=Wynter%20Law%20Practice&query_place_id=ChIJaUkf5CbCwogRSZSp3bFrVl4"}}, {"type": "Feature", "geometry": {"type": "Point", "coordinates": [35.3737257, -119.0112104]}, "properties": {"title": "Immigration and Customs Enforcement", "stret": "800 Truxtun Ave", "city": "Bakersfield", "state": "California", "countryCode": "US", "url": "https://www.google.com/maps/search/?api=1&query=Immigration%20and%20Customs%20Enforcement&query_place_id=ChIJx18E_idq6oAR6vSbKQbj67E"}}, {"type": "Feature", "geometry": {"type": "Point", "coordinates": [33.850535, -117.9211929]}, "properties": {"title": "Access California Services", "stret": "300 W Carl Karcher Way", "city": "Anaheim", "state": "California", "countryCode": "US", "url": "https://www.google.com/maps/search/?api=1&query=Access%20California%20Services&query_place_id=ChIJsZ9Z9dgp3YAR-XcxkZOanlI"}}, {"type": "Feature", "geometry": {"type": "Point", "coordinates": [28.452384, -81.4390001]}, "properties": {"title": "Immigration Universe Attorneys", "stret": "7901 Kingspointe Pkwy suite 8", "city": "Orlando", "state": "Florida", "countryCode": "US", "url": "https://www.google.com/maps/search/?api=1&query=Immigration%20Universe%20Attorneys&query_place_id=ChIJ3Y4S6eB_54gR1ftms6klZOM"}}, {"type": "Feature", "geometry": {"type": "Point", "coordinates": [38.0190963, -121.2952423]}, "properties": {"title": "Pacific Immigration Services", "stret": "7707 West Ln d2", "city": "Stockton", "state": "California", "countryCode": "US", "url": "https://www.google.com/maps/search/?api=1&query=Pacific%20Immigration%20Services&query_place_id=ChIJNXG2lkYMkIARgIkhC4QPn5E"}}, {"type": "Feature", "geometry": {"type": "Point", "coordinates": [37.9573836, -121.2883857]}, "properties": {"title": "Ramirez Immigration Bonds", "stret": null, "city": "Stockton", "state": "California", "countryCode": "US", "url": "https://www.google.com/maps/search/?api=1&query=Ramirez%20Immigration%20Bonds&query_place_id=ChIJq6qqqlZtkIARIXC2tMFFbCo"}}, {"type": "Feature", "geometry": {"type": "Point", "coordinates": [38.6235599, -90.2006571]}, "properties": {"title": "USCIS St. Louis Field Office", "stret": "1222 Spruce St Room 2.205", "city": "St. Louis", "state": "Missouri", "countryCode": "US", "url": "https://www.google.com/maps/search/?api=1&query=USCIS%20St.%20Louis%20Field%20Office&query_place_id=ChIJDT-VdBGz2IcRpFtxyfA45TI"}}, {"type": "Feature", "geometry": {"type": "Point", "coordinates": [33.70177, -117.8648891]}, "properties": {"title": "Immigration International", "stret": "3 MacArthur Pl # 855", "city": "Santa Ana", "state": "California", "countryCode": "US", "url": "https://www.google.com/maps/search/?api=1&query=Immigration%20International&query_place_id=ChIJ2xyNNM7e3IARNi202ntgssg"}}, {"type": "Feature", "geometry": {"type": "Point", "coordinates": [32.6298392, -117.0750591]}, "properties": {"title": "Immigration Services", "stret": "629 3rd Ave H", "city": "Chula Vista", "state": "California", "countryCode": "US", "url": "https://www.google.com/maps/search/?api=1&query=Immigration%20Services&query_place_id=ChIJrwXUtXRO2YAR5l5PVgTBFPQ"}}, {"type": "Feature", "geometry": {"type": "Point", "coordinates": [40.7357127, -74.1682122]}, "properties": {"title": "Newark Asylum Office", "stret": "Gateway 3, 100 Mulberry St Suite 199", "city": "Newark", "state": "New Jersey", "countryCode": "US", "url": "https://www.google.com/maps/search/?api=1&query=Newark%20Asylum%20Office&query_place_id=ChIJEQic3BhWwokRRil2PAqFV3A"}}, {"type": "Feature", "geometry": {"type": "Point", "coordinates": [33.6589497, -117.7532345]}, "properties": {"title": "Brudner Law", "stret": "6 Venture #385", "city": "Irvine", "state": "California", "countryCode": "US", "url": "https://www.google.com/maps/search/?api=1&query=Brudner%20Law&query_place_id=ChIJzc7akwbd3IARfZptNXALTmY"}}, {"type": "Feature", "geometry": {"type": "Point", "coordinates": [33.653875, -117.747284]}, "properties": {"title": "ImmigraTrust Law", "stret": "300 Spectrum Center Dr #400", "city": "Irvine", "state": "California", "countryCode": "US", "url": "https://www.google.com/maps/search/?api=1&query=ImmigraTrust%20Law&query_place_id=ChIJZ56YOYDZmoARr7VIrAqq_hI"}}, {"type": "Feature", "geometry": {"type": "Point", "coordinates": [27.775318, -82.6797498]}, "properties": {"title": "Champs International Services Center", "stret": "450 34th St N B", "city": "St. Petersburg", "state": "Florida", "countryCode": "US", "url": "https://www.google.com/maps/search/?api=1&query=Champs%20International%20Services%20Center&query_place_id=ChIJFT8NZk3iwogRdEYpq-Dit8g"}}, {"type": "Feature", "geometry": {"type": "Point", "coordinates": [38.2633713, -85.5708731]}, "properties": {"title": "USCIS Application Support Center (ASC)", "stret": "10023 Forest Green Blvd", "city": "Louisville", "state": "Kentucky", "countryCode": "US", "url": "https://www.google.com/maps/search/?api=1&query=USCIS%20Application%20Support%20Center%20(ASC)&query_place_id=ChIJg7qxTalyaYgRBIerVPsIbnQ"}}, {"type": "Feature", "geometry": {"type": "Point", "coordinates": [37.5531077, -121.9806657]}, "properties": {"title": "Bay Area Immigration Services Inc.", "stret": "39159 Paseo Padre Pkwy STE 115", "city": "Fremont", "state": "California", "countryCode": "US", "url": "https://www.google.com/maps/search/?api=1&query=Bay%20Area%20Immigration%20Services%20Inc.&query_place_id=ChIJ6wihko_Aj4ARBnoLSNp5Row"}}, {"type": "Feature", "geometry": {"type": "Point", "coordinates": [34.065666, -117.2855661]}, "properties": {"title": "ARC Immigration Services", "stret": "155 W Hospitality Ln #130", "city": "San Bernardino", "state": "California", "countryCode": "US", "url": "https://www.google.com/maps/search/?api=1&query=ARC%20Immigration%20Services&query_place_id=ChIJAR1f_o2s3IAR-DJfeWcSX5c"}}, {"type": "Feature", "geometry": {"type": "Point", "coordinates": [34.0612928, -117.2869964]}, "properties": {"title": "Immigration Office & Associates", "stret": "2211 S Hunts Ln S-2", "city": "San Bernardino", "state": "California", "countryCode": "US", "url": "https://www.google.com/maps/search/?api=1&query=Immigration%20Office%20%26%20Associates&query_place_id=ChIJszNdEoys3IARKpMoAPKtsiE"}}, {"type": "Feature", "geometry": {"type": "Point", "coordinates": [34.0960939, -117.4348526]}, "properties": {"title": "United Immigration & Income Tax Services", "stret": "16920 Orange Way Suite B", "city": "Fontana", "state": "California", "countryCode": "US", "url": "https://www.google.com/maps/search/?api=1&query=United%20Immigration%20%26%20Income%20Tax%20Services&query_place_id=ChIJVVVVVYpMw4ARM148rRAkO5g"}}, {"type": "Feature", "geometry": {"type": "Point", "coordinates": [37.6784903, -121.034069]}, "properties": {"title": "Omer Immigration Consultancy", "stret": "2141 Chrysler Dr", "city": "Modesto", "state": "California", "countryCode": "US", "url": "https://www.google.com/maps/search/?api=1&query=Omer%20Immigration%20Consultancy&query_place_id=ChIJEWekG72T0YgRgVIzGE7DTzk"}}, {"type": "Feature", "geometry": {"type": "Point", "coordinates": [43.1960451, -77.6033998]}, "properties": {"title": "Mohamed Immigration Law PLLC", "stret": "564 East Ridge Road Suite 103", "city": "Rochester", "state": "New York", "countryCode": "US", "url": "https://www.google.com/maps/search/?api=1&query=Mohamed%20Immigration%20Law%20PLLC&query_place_id=ChIJtWhLBey31okRqO8qeCQrAyw"}}, {"type": "Feature", "geometry": {"type": "Point", "coordinates": [34.1571009, -118.2556545]}, "properties": {"title": "Shan Potts Law Offices", "stret": "701 N Brand Blvd STE 270", "city": "Glendale", "state": "California", "countryCode": "US", "url": "https://www.google.com/maps/search/?api=1&query=Shan%20Potts%20Law%20Offices&query_place_id=ChIJMx6oWUrGwoAR-KUKfCiv2lU"}}, {"type": "Feature", "geometry": {"type": "Point", "coordinates": [35.0343915, -78.9360054]}, "properties": {"title": "ID Care\u00ae - USCIS Immigration Medical Examination", "stret": "1319 Avon St", "city": "Fayetteville", "state": "North Carolina", "countryCode": "US", "url": "https://www.google.com/maps/search/?api=1&query=ID%20Care%C2%AE%20-%20USCIS%20Immigration%20Medical%20Examination&query_place_id=ChIJ_SBLuRMVq4kR-V8YrzKm9Jo"}}, {"type": "Feature", "geometry": {"type": "Point", "coordinates": [41.7552976, -88.2044954]}, "properties": {"title": "Uscis Naperville", "stret": "south 888, 888 Illinois Rte 59 #124", "city": "Naperville", "state": "IL", "countryCode": "US", "url": "https://www.google.com/maps/search/?api=1&query=Uscis%20Naperville&query_place_id=ChIJBwvrAzgz4ocRs21SdjWtOuM"}}, {"type": "Feature", "geometry": {"type": "Point", "coordinates": [25.8990588, -97.4963879]}, "properties": {"title": "U.S. Immigration and Customs Enforcement", "stret": "1550 W University Blvd", "city": "Brownsville", "state": "Texas", "countryCode": "US", "url": "https://www.google.com/maps/search/?api=1&query=U.S.%20Immigration%20and%20Customs%20Enforcement&query_place_id=ChIJQ_9JBFmUb4YR4yfFxrrPW_Y"}}, {"type": "Feature", "geometry": {"type": "Point", "coordinates": [37.2164294, -93.3739866]}, "properties": {"title": "Immigration office", "stret": "4715 W Junction St", "city": "Springfield", "state": "Missouri", "countryCode": "US", "url": "https://www.google.com/maps/search/?api=1&query=Immigration%20office&query_place_id=ChIJ4U7AKwBhz4cRUysQwmxdwLo"}}, {"type": "Feature", "geometry": {"type": "Point", "coordinates": [38.801713, -77.0816858]}, "properties": {"title": "USCIS Application Support Center (ASC)", "stret": "2800 Eisenhower Ave Suite 400", "city": "Alexandria", "state": "Virginia", "countryCode": "US", "url": "https://www.google.com/maps/search/?api=1&query=USCIS%20Application%20Support%20Center%20(ASC)&query_place_id=ChIJ_Qf6L0Sst4kR3k6wOK18HwE"}}, {"type": "Feature", "geometry": {"type": "Point", "coordinates": [37.3723268, -122.0378416]}, "properties": {"title": "Atlanta Immigration Services", "stret": "505 W Olive Ave", "city": "Sunnyvale", "state": "California", "countryCode": "US", "url": "https://www.google.com/maps/search/?api=1&query=Atlanta%20Immigration%20Services&query_place_id=ChIJVVWV8F-2j4AR2wer3vPuPbI"}}, {"type": "Feature", "geometry": {"type": "Point", "coordinates": [37.3513682, -122.0411722]}, "properties": {"title": "Immigration Specialist", "stret": "1310 Hollenbeck Ave # H", "city": "Sunnyvale", "state": "California", "countryCode": "US", "url": "https://www.google.com/maps/search/?api=1&query=Immigration%20Specialist&query_place_id=ChIJgfeCfyq0j4ARYrrav4FiqrE"}}, {"type": "Feature", "geometry": {"type": "Point", "coordinates": [40.7600664, -73.9798152]}, "properties": {"title": "The Law Offices of Michael H. Markovitch", "stret": "1270 6th Ave Suite 731", "city": "New York", "state": "New York", "countryCode": "US", "url": "https://www.google.com/maps/search/?api=1&query=The%20Law%20Offices%20of%20Michael%20H.%20Markovitch&query_place_id=ChIJ20L03PdYwokRi_wJ1PQlEw4"}}, {"type": "Feature", "geometry": {"type": "Point", "coordinates": [26.0090144, -80.1840628]}, "properties": {"title": "Law Offices of Alex T. Barak, P.A.", "stret": "3900 Hollywood Blvd Suite 101", "city": "Hollywood", "state": "Florida", "countryCode": "US", "url": "https://www.google.com/maps/search/?api=1&query=Law%20Offices%20of%20Alex%20T.%20Barak%2C%20P.A.&query_place_id=ChIJT6lV7X6p2YgR6VTrV_RvuBo"}}, {"type": "Feature", "geometry": {"type": "Point", "coordinates": [43.0490873, -76.1520425]}, "properties": {"title": "USCIS Syracuse Field Office", "stret": "213 S Salina St", "city": "Syracuse", "state": "New York", "countryCode": "US", "url": "https://www.google.com/maps/search/?api=1&query=USCIS%20Syracuse%20Field%20Office&query_place_id=ChIJxU1uyL7z2YkR_jwB8669biA"}}, {"type": "Feature", "geometry": {"type": "Point", "coordinates": [40.9124728, -74.1743397]}, "properties": {"title": "Immigration Bonding Service", "stret": "28 Marshall St", "city": "Paterson", "state": "New Jersey", "countryCode": "US", "url": "https://www.google.com/maps/search/?api=1&query=Immigration%20Bonding%20Service&query_place_id=ChIJKV9oAEb9wokRZUlo7dINxvU"}}, {"type": "Feature", "geometry": {"type": "Point", "coordinates": [26.2655102, -98.201079]}, "properties": {"title": "USCIS Rio Grande Valley Field Office", "stret": "2800 W Trenton Rd Suite 3000", "city": "Edinburg", "state": "Texas", "countryCode": "US", "url": "https://www.google.com/maps/search/?api=1&query=USCIS%20Rio%20Grande%20Valley%20Field%20Office&query_place_id=ChIJWy0MrJCBb4YRfbBbVEfNj3Q"}}, {"type": "Feature", "geometry": {"type": "Point", "coordinates": [25.9827308, -80.3395231]}, "properties": {"title": "ICE-ERO Center Miramar", "stret": "2805 SW 145th Ave", "city": "Miramar", "state": "Florida", "countryCode": "US", "url": "https://www.google.com/maps/search/?api=1&query=ICE-ERO%20Center%20Miramar&query_place_id=ChIJ5-ka1EGl2YgRgTgTKq1tsZ8"}}, {"type": "Feature", "geometry": {"type": "Point", "coordinates": [42.5409761, -83.1179701]}, "properties": {"title": "USCIS Detroit Field Office", "stret": "750 Stephenson Hwy 3rd Floor", "city": "Troy", "state": "Michigan", "countryCode": "US", "url": "https://www.google.com/maps/search/?api=1&query=USCIS%20Detroit%20Field%20Office&query_place_id=ChIJJ6LWIfPUJIgR0e42eUOAO9c"}}, {"type": "Feature", "geometry": {"type": "Point", "coordinates": [32.7796795, -79.9312581]}, "properties": {"title": "Pandev Law - Immigration Lawyer Charleston", "stret": "170 Meeting St", "city": "Charleston", "state": "South Carolina", "countryCode": "US", "url": "https://www.google.com/maps/search/?api=1&query=Pandev%20Law%20-%20Immigration%20Lawyer%20Charleston&query_place_id=ChIJwc9gHRJ6_ogR8_L91XQagV4"}}, {"type": "Feature", "geometry": {"type": "Point", "coordinates": [40.6656877, -74.2252278]}, "properties": {"title": "Social Immigration Services Unit (SISU)", "stret": "233 W Grand St", "city": "Elizabeth", "state": "New Jersey", "countryCode": "US", "url": "https://www.google.com/maps/search/?api=1&query=Social%20Immigration%20Services%20Unit%20(SISU)&query_place_id=ChIJk9iXVTizw4kRHXJVegnNkbg"}}, {"type": "Feature", "geometry": {"type": "Point", "coordinates": [34.0283855, -118.1468515]}, "properties": {"title": "Franco Law Group, A Professional Law Corporation", "stret": "5601 E Beverly Blvd", "city": "East Los Angeles", "state": "California", "countryCode": "US", "url": "https://www.google.com/maps/search/?api=1&query=Franco%20Law%20Group%2C%20A%20Professional%20Law%20Corporation&query_place_id=ChIJ9aTtp7THwoARgT0UQJbW93M"}}, {"type": "Feature", "geometry": {"type": "Point", "coordinates": [38.751441, -121.267906]}, "properties": {"title": "DV Health Center - Immigration Doctor", "stret": "300 Harding Blvd #201", "city": "Roseville", "state": "California", "countryCode": "US", "url": "https://www.google.com/maps/search/?api=1&query=DV%20Health%20Center%20-%20Immigration%20Doctor&query_place_id=ChIJr4inDCEhm4AREDIkMcvqWZY"}}, {"type": "Feature", "geometry": {"type": "Point", "coordinates": [38.0076243, -121.8057015]}, "properties": {"title": "GOOD START IMMIGRATION SERVICES", "stret": "1407 A St STE D", "city": "Antioch", "state": "California", "countryCode": "US", "url": "https://www.google.com/maps/search/?api=1&query=GOOD%20START%20IMMIGRATION%20SERVICES&query_place_id=ChIJu41vyUAH_GARdTF_wURBd2s"}}, {"type": "Feature", "geometry": {"type": "Point", "coordinates": [32.847739, -79.9392917]}, "properties": {"title": "USCIS Academy", "stret": null, "city": "North Charleston", "state": "South Carolina", "countryCode": "US", "url": "https://www.google.com/maps/search/?api=1&query=USCIS%20Academy&query_place_id=ChIJ_15A0bV6_ogRp6mzgb_Rg4o"}}, {"type": "Feature", "geometry": {"type": "Point", "coordinates": [26.7126749, -80.0961462]}, "properties": {"title": "J & J Law Firm, P.A.", "stret": "2161 Palm Beach Lakes Blvd #301", "city": "West Palm Beach", "state": "Florida", "countryCode": "US", "url": "https://www.google.com/maps/search/?api=1&query=J%20%26%20J%20Law%20Firm%2C%20P.A.&query_place_id=ChIJh3QFRR7W2IgRox_eEMboiAM"}}, {"type": "Feature", "geometry": {"type": "Point", "coordinates": [34.9181184, -120.4447647]}, "properties": {"title": "ICE Office", "stret": "740 Century St", "city": "Santa Maria", "state": "California", "countryCode": "US", "url": "https://www.google.com/maps/search/?api=1&query=ICE%20Office&query_place_id=ChIJF5mrmuRr7IARGZJwxfpWDLg"}}, {"type": "Feature", "geometry": {"type": "Point", "coordinates": [40.570776, -74.3244978]}, "properties": {"title": "Dalal & Mehta Law | US Immigration Law", "stret": "200 Middlesex-Essex Tpke #103", "city": "Iselin", "state": "New Jersey", "countryCode": "US", "url": "https://www.google.com/maps/search/?api=1&query=Dalal%20%26%20Mehta%20Law%20%7C%20US%20Immigration%20Law&query_place_id=ChIJz4jKZpq2w4kRRNfV5aXtysw"}}, {"type": "Feature", "geometry": {"type": "Point", "coordinates": [33.1955712, -117.2529924]}, "properties": {"title": "United Family Immigration Center", "stret": "550 W Vista Way #108", "city": "Vista", "state": "California", "countryCode": "US", "url": "https://www.google.com/maps/search/?api=1&query=United%20Family%20Immigration%20Center&query_place_id=ChIJrZAECKd23IARC2g3rnXL_-A"}}, {"type": "Feature", "geometry": {"type": "Point", "coordinates": [37.7904462, -122.4011537]}, "properties": {"title": "Yasrebi Law Immigration Attorneys", "stret": "One Sansome Street, Sansome St #3500", "city": "San Francisco", "state": "California", "countryCode": "US", "url": "https://www.google.com/maps/search/?api=1&query=Yasrebi%20Law%20Immigration%20Attorneys&query_place_id=ChIJrfomHU2HhYARvzwSbdV2VFc"}}, {"type": "Feature", "geometry": {"type": "Point", "coordinates": [32.6732816, -114.5058763]}, "properties": {"title": "US Customs Services", "stret": "7431 E 30th St", "city": "Yuma", "state": "Arizona", "countryCode": "US", "url": "https://www.google.com/maps/search/?api=1&query=US%20Customs%20Services&query_place_id=ChIJTQ2HrmZg1oARPrK4IWXoDcQ"}}, {"type": "Feature", "geometry": {"type": "Point", "coordinates": [33.8724564, -118.1240789]}, "properties": {"title": "USCIS Application Support Center (ASC)", "stret": "8002, 17610 Bellflower Blvd Suite A110", "city": "Bellflower", "state": "CA", "countryCode": "US", "url": "https://www.google.com/maps/search/?api=1&query=USCIS%20Application%20Support%20Center%20(ASC)&query_place_id=ChIJJQVFyvYz3YARR23qAlumse4"}}, {"type": "Feature", "geometry": {"type": "Point", "coordinates": [33.859675, -118.0291753]}, "properties": {"title": "Pro Immigration Services Inc.", "stret": "6 Centerpointe Dr #700", "city": "La Palma", "state": "California", "countryCode": "US", "url": "https://www.google.com/maps/search/?api=1&query=Pro%20Immigration%20Services%20Inc.&query_place_id=ChIJWUjlkV4s3YARa4-k6vnRGXA"}}, {"type": "Feature", "geometry": {"type": "Point", "coordinates": [32.8635319, -79.7895326]}, "properties": {"title": "Atlas Healthcare", "stret": "3040 N Hwy 17 suite a", "city": "Mt Pleasant", "state": "South Carolina", "countryCode": "US", "url": "https://www.google.com/maps/search/?api=1&query=Atlas%20Healthcare&query_place_id=ChIJhb_Q80al-IgRmkM81eDrig0"}}, {"type": "Feature", "geometry": {"type": "Point", "coordinates": [25.6870841, -80.3157056]}, "properties": {"title": "Yolanda Mendoza Law - Kendall Immigration Lawyers & Services", "stret": "8950 SW 74th Ct Suite 2201", "city": "Miami", "state": "Florida", "countryCode": "US", "url": "https://www.google.com/maps/search/?api=1&query=Yolanda%20Mendoza%20Law%20-%20Kendall%20Immigration%20Lawyers%20%26%20Services&query_place_id=ChIJCYiZeHXdaGYRCVi9TcD8LIw"}}, {"type": "Feature", "geometry": {"type": "Point", "coordinates": [33.7588044, -117.8214124]}, "properties": {"title": "Law Offices of Shadi Sheidayi", "stret": "17822 17th St #202", "city": "Tustin", "state": "California", "countryCode": "US", "url": "https://www.google.com/maps/search/?api=1&query=Law%20Offices%20of%20Shadi%20Sheidayi&query_place_id=ChIJ67z6nPXe3IARVUPFPxbZ7qk"}}]}}